{
  "geodata":
  {
    "timestamp" : "01/19/2016 06:00:00 PM ET",
    "title" : "News Paper Locations",
    "directions" : "YES",
    "styles":
    {
      "paperbox":
      {
        "name" : "Paper Box",
        "prefix" : "Paperbox: ",
        "bgcolor" : "red"
      },
      "starbucks":
      {
        "name" : "Starbucks",
        "prefix" : "Starbucks: ",
        "bgcolor" : "green"
      }
    },
    "locations":
    [
      {
        "street" : "WILSON BLVD & N. LYNN STREET",
        "style" : "paperbox",
        "city" : "ARLINGTON",
        "name" : "WILSON BLVD & N LYNN ST",
        "lat": 38.8950306,
        "lng": -77.07076950000001,
        "state" : "VA",
        "directions_address" : "Wilson Boulevard & North Lynn Street, Arlington, VA 22209, USA",
        "details" : "Wilson Blvd. & N. Lynn St., Arlington VA"
      },
      {
        "street" : "KING STREET & WASHINGTON",
        "style" : "paperbox",
        "lat": 38.8050703,
        "lng": -77.0470725,
        "name" : "KING ST & WASHINGTON",
        "city" : "ALEXANDRIA",
        "state" : "VA",
        "directions_address" : "George Washington Memorial Parkway & King Street, Alexandria, VA 22314, USA",
        "details" : "GW Pkwy. & King St., Alexandria VA"
      },
      {
        "street" : "WILSON BLVD & FAIRFAX DRIVE",
        "style" : "paperbox",
        "city" : "ARLINGTON",
        "name" : "WILSON BLVD & FAIRFAX DR",
        "lat": 38.8856506,
        "lng": -77.0973968,
        "state" : "VA",
        "directions_address" : "Wilson Boulevard & Fairfax Drive, Arlington, VA 22201, USA",
        "details" : "Wilson Blvd. & Fairfax Dr., Arlington VA"
      },
      {
        "street" : "1200 INDEPENDENCE AVENUE SW",
        "style" : "paperbox",
        "city" : "WASHINGTON",
        "name" : "1200 INDEPENDENCE AVE SW",
        "lat": 38.8874005,
        "lng": -77.02873629999999,
        "state" : "DC",
        "directions_address" : "1200 Independence Avenue Southwest, Washington, DC 20560, USA",
        "details" : "1200 Independence Ave. SW, Washington DC"
      },
      {
        "street" : "607 13TH STREET NW",
        "style" : "paperbox",
        "city" : "WASHINGTON",
        "name" : "607 13TH ST NW",
        "lat": 38.897822,
        "lng": -77.0295735,
        "state" : "DC",
        "directions_address" : "607 13th Street Northwest, Washington, DC 20005, USA",
        "details" : "607 13th St. NW, Washington DC"
      },
      {
        "street" : "700 13TH STREET NW",
        "style" : "paperbox",
        "city" : "WASHINGTON",
        "name" : "700 13TH ST NW",
        "lat": 38.898742,
        "lng": -77.030041,
        "state" : "DC",
        "directions_address" : "700 13th Street Northwest, Washington, DC 20005, USA",
        "details" : "700 13th St. NW, Washington DC"
      },
      {
        "street" : "1401 I STREET NW",
        "style" : "paperbox",
        "city" : "WASHINGTON",
        "name" : "1401 I ST NW",
        "lat": 38.9016639,
        "lng": -77.032414,
        "state" : "DC",
        "directions_address" : "1401 I Street Northwest, Washington, DC 20005, USA",
        "details" : "1401 I St. NW, Washington DC"
      },
      {
        "street" : "4400 CONNECTICUT AVENUE NW",
        "style" : "paperbox",
        "city" : "WASHINGTON",
        "name" : "4400 CONNECTICUT AVE NW",
        "lat": 38.94692999999999,
        "lng": -77.065639,
        "state" : "DC",
        "directions_address" : "4400 Connecticut Avenue Northwest, Washington, DC 20008, USA",
        "details" : "4400 Connecticut Ave. NW, Washington DC"
      },
      {
        "street" : "550 13TH STREET NW",
        "style" : "paperbox",
        "city" : "WASHINGTON",
        "name" : "550 13TH ST NW",
        "lat": 38.8967488,
        "lng": -77.02962289999999,
        "state" : "DC",
        "directions_address" : "550 13th Street Northwest, Washington, DC 20004, USA",
        "details" : "550 13th St. NW, Washington DC"
      },
      {
        "street" : "4418 CONNECTICUT AVENUE NW",
        "style" : "paperbox",
        "city" : "WASHINGTON",
        "name" : "4418 CONNECTICUT AVE NW",
        "lat": 38.9472326,
        "lng": -77.0655319,
        "state" : "DC",
        "directions_address" : "4418 Connecticut Avenue Northwest, Washington, DC 20008, USA",
        "details" : "4418 Connecticut Ave. NW, Washington DC"
      },
      {
        "street" : "301 PENNSYLVANIA AVENUE SE",
        "style" : "paperbox",
        "city" : "WASHINGTON",
        "name" : "301 PENNSYLVANIA AVE SE",
        "lat": 38.886591,
        "lng": -77.00185599999999,
        "state" : "DC",
        "directions_address" : "301 Pennsylvania Avenue Southeast, Washington, DC 20003, USA",
        "details" : "301 Pennsylvania Ave. SE, Washington DC"
      },
      {
        "street" : "2100 M STREET NW",
        "style" : "paperbox",
        "city" : "WASHINGTON",
        "name" : "2100 M ST NW",
        "lat": 38.9050344,
        "lng": -77.0468412,
        "state" : "DC",
        "directions_address" : "2100 M Street Northwest, The George Washington University, Washington, DC 20037, USA",
        "details" : "2100 M St. NW, The George Washington University, Washington DC"
      },
      {
        "street" : "1901 L STREET NW",
        "style" : "paperbox",
        "city" : "WASHINGTON",
        "name" : "1901 L ST NW",
        "lat": 38.90403999999999,
        "lng": -77.04391799999999,
        "state" : "DC",
        "directions_address" : "1901 L Street Northwest, Washington, DC 20036, USA",
        "details" : "1901 L St. NW, Washington DC"
      },
      {
        "street" : "1800 K STREET NW",
        "style" : "paperbox",
        "city" : "WASHINGTON",
        "name" : "1800 K ST NW",
        "lat": 38.902087,
        "lng": -77.042064,
        "state" : "DC",
        "directions_address" : "1800 K Street Northwest, Washington, DC 20006, USA",
        "details" : "1800 K St. NW, Washington DC"
      },
      {
        "street" : "1700 L STREET NW",
        "style" : "paperbox",
        "city" : "WASHINGTON",
        "name" : "1700 L ST NW",
        "lat": 38.9036261,
        "lng": -77.0387523,
        "state" : "DC",
        "directions_address" : "1700 L Street Northwest, Washington, DC 20036, USA",
        "details" : "1700 L St. NW, Washington DC"
      },
      {
        "street" : "200 6TH STREET SW",
        "style" : "paperbox",
        "city" : "WASHINGTON",
        "name" : "200 6TH ST SW",
        "lat": 38.887556,
        "lng": -77.0198863,
        "state" : "DC",
        "directions_address" : "200 6th Street Southwest, Washington, DC 20597, USA",
        "details" : "200 6th St. SW, Washington DC"
      },
      {
        "street" : "919 18TH STREET NW",
        "style" : "paperbox",
        "city" : "WASHINGTON",
        "name" : "919 18TH ST NW",
        "lat": 38.90188,
        "lng": -77.041252,
        "state" : "DC",
        "directions_address" : "919 18th Street Northwest, Washington, DC 20006, USA",
        "details" : "919 18th St. NW, Washington DC"
      },
      {
        "street" : "1701 PENNSYLVANIA AVENUE NW",
        "style" : "paperbox",
        "city" : "WASHINGTON",
        "name" : "1701 PENNSYLVANIA AVE NW",
        "lat": 38.899374,
        "lng": -77.03992,
        "state" : "DC",
        "directions_address" : "1701 Pennsylvania Avenue Northwest, Washington, DC 20006, USA",
        "details" : "1701 Pennsylvania Ave. NW, Washington DC"
      },
      {
        "street" : "1701 G STREET NW",
        "style" : "paperbox",
        "city" : "WASHINGTON",
        "name" : "1701 G ST NW",
        "lat": 38.8983404,
        "lng": -77.0394883,
        "state" : "DC",
        "directions_address" : "1701 G Street Northwest, Washington, DC 20433, USA",
        "details" : "1701 G St. NW, Washington DC"
      },
      {
        "street" : "1751 PENNSYLVANIA AVENUE NW",
        "style" : "paperbox",
        "city" : "WASHINGTON",
        "name" : "1751 PENNSYLVANIA AVE NW",
        "lat": 38.89959870000001,
        "lng": -77.0410751,
        "state" : "DC",
        "directions_address" : "1751 Pennsylvania Avenue Northwest, Washington, DC 20006, USA",
        "details" : "1751 Pennsylvania Ave. NW, Washington DC"
      },
      {
        "street" : "2099 PENNSYLVANIA AVENUE NW",
        "style" : "paperbox",
        "city" : "WASHINGTON",
        "name" : "2099 PENNSYLVANIA AVE NW",
        "lat": 38.9014582,
        "lng": -77.0463472,
        "state" : "DC",
        "directions_address" : "2099 Pennsylvania Avenue Northwest, The George Washington University, Washington, DC 20006, USA",
        "details" : "2099 Pennsylvania Ave. NW, The George Washington University, Washington DC"
      },
      {
        "street" : "1600 K STREET NW",
        "style" : "paperbox",
        "city" : "WASHINGTON",
        "name" : "1600 K ST NW",
        "lat": 38.902202,
        "lng": -77.036867,
        "state" : "DC",
        "directions_address" : "1600 K Street Northwest, Washington, DC 20006, USA",
        "details" : "1600 K St. NW, Washington DC"
      },
      {
        "street" : "1111 19TH STREET NW",
        "style" : "paperbox",
        "city" : "WASHINGTON",
        "name" : "1111 19TH ST NW",
        "lat": 38.90440299999999,
        "lng": -77.0429149,
        "state" : "DC",
        "directions_address" : "1111 19th Street Northwest, Washington, DC 20036, USA",
        "details" : "1111 19th St. NW, Washington DC"
      },
      {
        "street" : "1200 K STREET NW",
        "style" : "paperbox",
        "city" : "WASHINGTON",
        "name" : "1200 K ST NW",
        "lat": 38.902123,
        "lng": -77.02864699999999,
        "state" : "DC",
        "directions_address" : "1200 K Street Northwest, Washington, DC 20005, USA",
        "details" : "1200 K St. NW, Washington DC"
      },
      {
        "street" : "444 N. CAPITOL STREET NW",
        "style" : "paperbox",
        "city" : "WASHINGTON",
        "name" : "444 N CAPITOL ST NW",
        "lat": 38.89567600000001,
        "lng": -77.009783,
        "state" : "DC",
        "directions_address" : "444 North Capitol Street Northwest, Washington, DC 20001, USA",
        "details" : "444 N. Capitol St. NW, Washington DC"
      },
      {
        "street" : "18TH STREET NW & PENNSYLVANIA AVENUE NW",
        "style" : "paperbox",
        "city" : "WASHINGTON",
        "name" : "18TH ST NW & PENNSYLVANIA AVE NW",
        "lat": 38.8995833,
        "lng": -77.0416943,
        "state" : "DC",
        "directions_address" : "Pennsylvania Avenue Northwest & 18th Street Northwest, Washington, DC 20006, USA",
        "details" : "Pennsylvania Ave. NW & 18th St. NW, Washington DC"
      },
      {
        "street" : "600 INDIANA AVENUE NW",
        "style" : "paperbox",
        "city" : "WASHINGTON",
        "name" : "600 INDIANA AVE NW",
        "lat": 38.8943796,
        "lng": -77.01998019999999,
        "state" : "DC",
        "directions_address" : "600 Indiana Avenue Northwest, Washington, DC 20004, USA",
        "details" : "600 Indiana Ave. NW, Washington DC"
      },
      {
        "street" : "1ST ST SE & C STREET SE",
        "style" : "paperbox",
        "city" : "WASHINGTON",
        "name" : "1ST ST SE & C ST SE",
        "lat": 38.8860343,
        "lng": -77.0058708,
        "state" : "DC",
        "directions_address" : "C Street Southeast & 1st Street Southeast, Washington, DC 20003, USA",
        "details" : "C St. SE & 1st St. SE, Washington DC"
      },
      {
        "street" : "2501 M STREET NW",
        "style" : "paperbox",
        "city" : "WASHINGTON",
        "name" : "2501 M ST NW",
        "lat": 38.905564,
        "lng": -77.053848,
        "state" : "DC",
        "directions_address" : "2501 M Street Northwest, Washington, DC 20037, USA",
        "details" : "2501 M St. NW, Washington DC"
      },
      {
        "street" : "1090 WISCONSIN AVENUE NW",
        "style" : "paperbox",
        "city" : "WASHINGTON",
        "name" : "1090 WISCONSIN AVE NW",
        "lat": 38.90488550000001,
        "lng": -77.062823,
        "state" : "DC",
        "directions_address" : "1090 Wisconsin Avenue Northwest, Washington, DC 20007, USA",
        "details" : "1090 Wisconsin Ave. NW, Washington DC"
      },
      {
        "street" : "1750 K STREET NW",
        "style" : "paperbox",
        "city" : "WASHINGTON",
        "name" : "1750 K ST NW",
        "lat": 38.9022945,
        "lng": -77.0408697,
        "state" : "DC",
        "directions_address" : "1750 K Street Northwest, Washington, DC 20006, USA",
        "details" : "1750 K St. NW, Washington DC"
      },
      {
        "street" : "1701 K STREET NW",
        "style" : "paperbox",
        "city" : "WASHINGTON",
        "name" : "1701 K ST NW",
        "lat": 38.902895,
        "lng": -77.038783,
        "state" : "DC",
        "directions_address" : "1701 K Street Northwest, Washington, DC 20006, USA",
        "details" : "1701 K St. NW, Washington DC"
      },
      {
        "street" : "10th ST NE & F STREET NE",
        "style" : "paperbox",
        "city" : "WASHINGTON",
        "name" : "10th ST NE & F ST NE",
        "lat": 38.897333,
        "lng": -76.992644,
        "state" : "DC",
        "directions_address" : "F Street Northeast & 10th Street Northeast, Washington, DC 20002, USA",
        "details" : "F St. NE & 10th St. NE, Washington DC"
      },
      {
        "street" : "1770 M STREET NW",
        "style" : "paperbox",
        "city" : "WASHINGTON",
        "name" : "1770 M ST NW",
        "lat": 38.9056281,
        "lng": -77.040818,
        "state" : "DC",
        "directions_address" : "1770 M Street Northwest, Washington, DC 20036, USA",
        "details" : "1770 M St. NW, Washington DC"
      },
      {
        "street" : "2001 PENNSYLVANIA AVENUE NW",
        "style" : "paperbox",
        "city" : "WASHINGTON",
        "name" : "2001 PENNSYLVANIA AVE NW",
        "lat": 38.9014488,
        "lng": -77.04521079999999,
        "state" : "DC",
        "directions_address" : "2001 Pennsylvania Avenue Northwest, Washington, DC 20006, USA",
        "details" : "2001 Pennsylvania Ave. NW, Washington DC"
      },
      {
        "street" : "700 13TH STREET NW",
        "style" : "paperbox",
        "city" : "WASHINGTON",
        "name" : "700 13TH ST NW",
        "lat": 38.898742,
        "lng": -77.030041,
        "state" : "DC",
        "directions_address" : "700 13th Street Northwest, Washington, DC 20005, USA",
        "details" : "700 13th St. NW, Washington DC"
      },
      {
        "street" : "1120 CONNECTICUT AVENUE NW",
        "style" : "paperbox",
        "city" : "WASHINGTON",
        "name" : "1120 CONNECTICUT AVE NW",
        "lat": 38.904045,
        "lng": -77.041056,
        "state" : "DC",
        "directions_address" : "1120 Connecticut Avenue Northwest, Washington, DC 20036, USA",
        "details" : "1120 Connecticut Ave. NW, Washington DC"
      },
      {
        "street" : "1218 CONNECTICUT AVENUE NW",
        "style" : "paperbox",
        "city" : "WASHINGTON",
        "name" : "1218 CONNECTICUT AVE NW",
        "lat": 38.9066245,
        "lng": -77.0419529,
        "state" : "DC",
        "directions_address" : "1218 Connecticut Avenue Northwest, Washington, DC 20036, USA",
        "details" : "1218 Connecticut Ave. NW, Washington DC"
      },
      {
        "street" : "1025 CONNECTICUT AVENUE NW",
        "style" : "paperbox",
        "city" : "WASHINGTON",
        "name" : "1025 CONNECTICUT AVE NW",
        "lat": 38.903324,
        "lng": -77.03934799999999,
        "state" : "DC",
        "directions_address" : "1025 Connecticut Avenue Northwest, Washington, DC 20036, USA",
        "details" : "1025 Connecticut Ave. NW, Washington DC"
      },
      {
        "street" : "5542 CONNECTICUT AVENUE NW",
        "style" : "paperbox",
        "city" : "WASHINGTON",
        "name" : "5542 CONNECTICUT AVE NW",
        "lat": 38.96454689999999,
        "lng": -77.07552439999999,
        "state" : "DC",
        "directions_address" : "5542 Connecticut Avenue Northwest, Washington, DC 20015, USA",
        "details" : "5542 Connecticut Ave. NW, Washington DC"
      },
      {
        "street" : "1211 CONNECTICUT AVENUE NW",
        "style" : "paperbox",
        "city" : "WASHINGTON",
        "name" : "1211 CONNECTICUT AVE NW",
        "lat": 38.90621549999999,
        "lng": -77.0412128,
        "state" : "DC",
        "directions_address" : "1211 Connecticut Avenue Northwest, Washington, DC 20036, USA",
        "details" : "1211 Connecticut Ave. NW, Washington DC"
      },
      {
        "street" : "1400 NEW YORK AVENUE NW",
        "style" : "paperbox",
        "city" : "WASHINGTON",
        "name" : "1400 NEW YORK AVE NW",
        "lat": 38.898866,
        "lng": -77.032426,
        "state" : "DC",
        "directions_address" : "1400 New York Avenue Northwest, Washington, DC 20005, USA",
        "details" : "1400 New York Ave. NW, Washington DC"
      },
      {
        "street" : "1155 CONNECTICUT AVENUE NW",
        "style" : "paperbox",
        "city" : "WASHINGTON",
        "name" : "1155 CONNECTICUT AVE NW",
        "lat": 38.9053065,
        "lng": -77.04091249999999,
        "state" : "DC",
        "directions_address" : "1155 Connecticut Avenue Northwest, Washington, DC 20036, USA",
        "details" : "1155 Connecticut Ave. NW, Washington DC"
      },
      {
        "street" : "1610 K STREET NW",
        "style" : "paperbox",
        "city" : "WASHINGTON",
        "name" : "1610 K ST NW",
        "lat": 38.9024039,
        "lng": -77.03742559999999,
        "state" : "DC",
        "directions_address" : "1610 K Street Northwest, Washington, DC 20005, USA",
        "details" : "1610 K St. NW, Washington DC"
      },
      {
        "street" : "1201 PENNSYLVANIA AVENUE NW",
        "style" : "paperbox",
        "city" : "WASHINGTON",
        "name" : "1201 PENNSYLVANIA AVE NW",
        "lat": 38.8956655,
        "lng": -77.0286227,
        "state" : "DC",
        "directions_address" : "1201 Pennsylvania Avenue Northwest, Washington, DC 20004, USA",
        "details" : "1201 Pennsylvania Ave. NW, Washington DC"
      },
      {
        "street" : "1250 CONNECTICUT AVENUE NW",
        "style" : "paperbox",
        "city" : "WASHINGTON",
        "name" : "1250 CONNECTICUT AVE NW",
        "lat": 38.906867,
        "lng": -77.042322,
        "state" : "DC",
        "directions_address" : "1250 Connecticut Avenue Northwest, Washington, DC 20036, USA",
        "details" : "1250 Connecticut Ave. NW, Washington DC"
      },
      {
        "street" : "1100 H STREET NW",
        "style" : "paperbox",
        "city" : "WASHINGTON",
        "name" : "1100 H ST NW",
        "lat": 38.8995514,
        "lng": -77.0273124,
        "state" : "DC",
        "directions_address" : "1100 H Street Northwest, Washington, DC 20005, USA",
        "details" : "1100 H St. NW, Washington DC"
      },
      {
        "street" : "601 PENNSYLVANIA AVENUE NW",
        "style" : "paperbox",
        "city" : "WASHINGTON",
        "name" : "601 PENNSYLVANIA AVE NW",
        "lat": 38.893709,
        "lng": -77.02063199999999,
        "state" : "DC",
        "directions_address" : "601 Pennsylvania Avenue Northwest, Washington, DC 20004, USA",
        "details" : "601 Pennsylvania Ave. NW, Washington DC"
      },
      {
        "street" : "1001 16TH STREET NW",
        "style" : "paperbox",
        "city" : "WASHINGTON",
        "name" : "1001 16TH ST NW",
        "lat": 38.9031896,
        "lng": -77.0362471,
        "state" : "DC",
        "directions_address" : "1001 16th Street Northwest, Washington, DC 20005, USA",
        "details" : "1001 16th St. NW, Washington DC"
      },
      {
        "street" : "201 MASSACHUSETTS AVENUE NE",
        "style" : "paperbox",
        "city" : "WASHINGTON",
        "name" : "201 MASSACHUSETTS AVE NE",
        "lat": 38.8946187,
        "lng": -77.0030982,
        "state" : "DC",
        "directions_address" : "201 Massachusetts Avenue Northeast, Washington, DC 20002, USA",
        "details" : "201 Massachusetts Ave. NE, Washington DC"
      },
      {
        "street" : "1155 21ST STREET NW",
        "style" : "paperbox",
        "city" : "WASHINGTON",
        "name" : "1155 21ST ST NW",
        "lat": 38.9049836,
        "lng": -77.046514,
        "state" : "DC",
        "directions_address" : "1155 21st Street Northwest, The George Washington University, Washington, DC 20036, USA",
        "details" : "1155 21st St. NW, The George Washington University, Washington DC"
      },
      {
        "street" : "1101 VERMONT AVENUE NW",
        "style" : "paperbox",
        "city" : "WASHINGTON",
        "name" : "1101 VERMONT AVE NW",
        "lat": 38.90393110000001,
        "lng": -77.0326601,
        "state" : "DC",
        "directions_address" : "1101 Vermont Avenue Northwest, Washington, DC 20005, USA",
        "details" : "1101 Vermont Ave. NW, Washington DC"
      },
      {
        "street" : "1002 VERMONT AVENUE NW",
        "style" : "paperbox",
        "city" : "WASHINGTON",
        "name" : "1002 VERMONT AVE NW",
        "lat": 38.9028751,
        "lng": -77.03359979999999,
        "state" : "DC",
        "directions_address" : "1002 Vermont Avenue Northwest, Washington, DC 20005, USA",
        "details" : "1002 Vermont Ave. NW, Washington DC"
      },
      {
        "street" : "1275 K STREET NW",
        "style" : "paperbox",
        "city" : "WASHINGTON",
        "name" : "1275 K ST NW",
        "lat": 38.9025322,
        "lng": -77.0293231,
        "state" : "DC",
        "directions_address" : "1275 K Street Northwest, Washington, DC 20005, USA",
        "details" : "1275 K St. NW, Washington DC"
      },
      {
        "street" : "526 KING STREET",
        "style" : "paperbox",
        "city" : "ALEXANDRIA",
        "name" : "526 KING ST",
        "lat": 38.8047314,
        "lng": -77.0457315,
        "state" : "VA",
        "directions_address" : "526 King Street, Alexandria, VA 22314, USA",
        "details" : "526 King St., Alexandria VA"
      },
      {
        "street" : "1001 14TH STREET NW",
        "style" : "paperbox",
        "city" : "WASHINGTON",
        "name" : "1001 14TH ST NW",
        "lat": 38.902935,
        "lng": -77.03146199999999,
        "state" : "DC",
        "directions_address" : "1001 14th Street Northwest, Washington, DC 20005, USA",
        "details" : "1001 14th St. NW, Washington DC"
      },
      {
        "street" : "2002 M STREET NW",
        "style" : "paperbox",
        "city" : "WASHINGTON",
        "name" : "2002 M ST NW",
        "lat": 38.9056395,
        "lng": -77.0454192,
        "state" : "DC",
        "directions_address" : "2002 M Street Northwest, Washington, DC 20036, USA",
        "details" : "2002 M St. NW, Washington DC"
      },
      {
        "street" : "1801 M STREET NW",
        "style" : "paperbox",
        "city" : "WASHINGTON",
        "name" : "1801 M ST NW",
        "lat": 38.90567009999999,
        "lng": -77.0414385,
        "state" : "DC",
        "directions_address" : "1801 M Street Northwest, Washington, DC 20036, USA",
        "details" : "1801 M St. NW, Washington DC"
      },
      {
        "street" : "30 IVY STREET SE",
        "style" : "paperbox",
        "city" : "WASHINGTON",
        "name" : "30 IVY ST SE",
        "lat": 38.8842913,
        "lng": -77.00789,
        "state" : "DC",
        "directions_address" : "30 Ivy Street Southeast, Washington, DC 20003, USA",
        "details" : "30 Ivy St. SE, Washington DC"
      },
      {
        "street" : "1801 L STREET NW",
        "style" : "paperbox",
        "city" : "WASHINGTON",
        "name" : "1801 L ST NW",
        "lat": 38.9037488,
        "lng": -77.0417088,
        "state" : "DC",
        "directions_address" : "1801 L Street Northwest, Washington, DC 20036, USA",
        "details" : "1801 L St. NW, Washington DC"
      },
      {
        "street" : "499 S. CAPITOL STREET SW",
        "style" : "paperbox",
        "city" : "WASHINGTON",
        "name" : "499 S CAPITOL ST SW",
        "lat": 38.8824789,
        "lng": -77.00943699999999,
        "state" : "DC",
        "directions_address" : "499 South Capitol Street Southwest, Washington, DC 20003, USA",
        "details" : "499 S. Capitol St. SW, Washington DC"
      },
      {
        "street" : "1133 CONNECTICUT AVENUE NW",
        "style" : "paperbox",
        "city" : "WASHINGTON",
        "name" : "1133 CONNECTICUT AVE NW",
        "lat": 38.904969,
        "lng": -77.040199,
        "state" : "DC",
        "directions_address" : "1133 Connecticut Avenue Northwest, Washington, DC 20036, USA",
        "details" : "1133 Connecticut Ave. NW, Washington DC"
      },
      {
        "street" : "530 1ST STREET",
        "style" : "paperbox",
        "city" : "ALEXANDRIA",
        "name" : "530 1ST ST",
        "lat": 38.8150768,
        "lng": -77.0432689,
        "state" : "VA",
        "directions_address" : "530 1st Street, Alexandria, VA 22314, USA",
        "details" : "530 1st St., Alexandria VA"
      },
      {
        "street" : "3336 WISCONSIN AVENUE NW",
        "style" : "paperbox",
        "city" : "WASHINGTON",
        "name" : "3336 WISCONSIN AVE NW",
        "lat": 38.934342,
        "lng": -77.073609,
        "state" : "DC",
        "directions_address" : "3336 Wisconsin Avenue Northwest, Washington, DC 20016, USA",
        "details" : "3336 Wisconsin Ave. NW, Washington DC"
      },
      {
        "street" : "1800 F STREET NW",
        "style" : "paperbox",
        "city" : "WASHINGTON",
        "name" : "1800 F ST NW",
        "lat": 38.8973357,
        "lng": -77.0417324,
        "state" : "DC",
        "directions_address" : "1800 F Street Northwest, Washington, DC 20006, USA",
        "details" : "1800 F St. NW, Washington DC"
      },
      {
        "street" : "2201 G STREET NW",
        "style" : "paperbox",
        "city" : "WASHINGTON",
        "name" : "2201 G ST NW",
        "lat": 38.8989516,
        "lng": -77.04894449999999,
        "state" : "DC",
        "directions_address" : "2201 G Street Northwest, The George Washington University, Washington, DC 20052, USA",
        "details" : "2201 G St. NW, The George Washington University, Washington DC"
      },
      {
        "street" : "208 MASSACHUSETTS AVENUE NE",
        "style" : "paperbox",
        "city" : "WASHINGTON",
        "name" : "208 MASSACHUSETTS AVE NE",
        "lat": 38.895449,
        "lng": -77.002871,
        "state" : "DC",
        "directions_address" : "208 Massachusetts Avenue Northeast, Washington, DC 20002, USA",
        "details" : "208 Massachusetts Ave. NE, Washington DC"
      },
      {
        "street" : "1430 K STREET NW",
        "style" : "paperbox",
        "city" : "WASHINGTON",
        "name" : "1430 K ST NW",
        "lat": 38.9024094,
        "lng": -77.0332397,
        "state" : "DC",
        "directions_address" : "1430 K Street Northwest, Washington, DC 20005, USA",
        "details" : "1430 K St. NW, Washington DC"
      },
      {
        "street" : "1850 K STREET NW",
        "style" : "paperbox",
        "city" : "WASHINGTON",
        "name" : "1850 K ST NW",
        "lat": 38.902212,
        "lng": -77.0427637,
        "state" : "DC",
        "directions_address" : "1850 K Street Northwest, Washington, DC 20006, USA",
        "details" : "1850 K St. NW, Washington DC"
      },
      {
        "street" : "1299 PENNSYLVANIA AVENUE NW",
        "style" : "paperbox",
        "city" : "WASHINGTON",
        "name" : "1299 PENNSYLVANIA AVE NW",
        "lat": 38.8963176,
        "lng": -77.02951019999999,
        "state" : "DC",
        "directions_address" : "1299 Pennsylvania Avenue Northwest, Washington, DC 20004, USA",
        "details" : "1299 Pennsylvania Ave. NW, Washington DC"
      },
      {
        "street" : "1901 M STREET NW",
        "style" : "paperbox",
        "city" : "WASHINGTON",
        "name" : "1901 M ST NW",
        "lat": 38.90567009999999,
        "lng": -77.0434667,
        "state" : "DC",
        "directions_address" : "1901 M Street Northwest, Washington, DC 20036, USA",
        "details" : "1901 M St. NW, Washington DC"
      },
      {
        "street" : "1900 I STREET NW",
        "style" : "paperbox",
        "city" : "WASHINGTON",
        "name" : "1900 I ST NW",
        "lat": 38.9013269,
        "lng": -77.04360799999999,
        "state" : "DC",
        "directions_address" : "1900 I Street Northwest, Washington, DC 20006, USA",
        "details" : "1900 I St. NW, Washington DC"
      },
      {
        "street" : "1499 G STREET NW",
        "style" : "paperbox",
        "city" : "WASHINGTON",
        "name" : "1499 G ST NW",
        "lat": 38.8983077,
        "lng": -77.0336189,
        "state" : "DC",
        "directions_address" : "1499 G Street Northwest, Washington, DC 20004, USA",
        "details" : "1499 G St. NW, Washington DC"
      },
      {
        "street" : "WISCONSIN NW & P STREET NW",
        "style" : "paperbox",
        "city" : "WASHINGTON",
        "name" : "WISCONSIN NW & P ST NW",
        "lat": 38.90884860000001,
        "lng": -77.06410629999999,
        "state" : "DC",
        "directions_address" : "Wisconsin Avenue Northwest & P Street Northwest, Washington, DC 20007, USA",
        "details" : "Wisconsin Ave. NW & P St. NW, Washington DC"
      },
      {
        "street" : "1101 CONNECTICUT AVENUE NW",
        "style" : "paperbox",
        "city" : "WASHINGTON",
        "name" : "1101 CONNECTICUT AVE NW",
        "lat": 38.904029,
        "lng": -77.0397349,
        "state" : "DC",
        "directions_address" : "1101 Connecticut Avenue Northwest, Washington, DC 20036, USA",
        "details" : "1101 Connecticut Ave. NW, Washington DC"
      },
      {
        "street" : "8507 COLESVILLE ROAD",
        "style" : "paperbox",
        "city" : "SILVER SPRING",
        "name" : "8507 COLESVILLE RD",
        "lat": 38.9950891,
        "lng": -77.0300966,
        "state" : "MD",
        "directions_address" : "8507 Colesville Road, Silver Spring, MD 20910, USA",
        "details" : "8507 Colesville Rd., Silver Spring MD"
      },
      {
        "street" : "1200 NEW HAMPSHIRE AVENUE NW",
        "style" : "paperbox",
        "city" : "WASHINGTON",
        "name" : "1200 NEW HAMPSHIRE AVE NW",
        "lat": 38.905792,
        "lng": -77.04763,
        "state" : "DC",
        "directions_address" : "1200 New Hampshire Avenue Northwest, Washington, DC 20036, USA",
        "details" : "1200 New Hampshire Ave. NW, Washington DC"
      },
      {
        "street" : "4230 FAIRFAX DRIVE",
        "style" : "paperbox",
        "city" : "ARLINGTON",
        "name" : "4230 FAIRFAX DR",
        "lat": 38.882163,
        "lng": -77.1113105,
        "state" : "VA",
        "directions_address" : "4230 Fairfax Drive, Arlington, VA 22203, USA",
        "details" : "4230 Fairfax Dr., Arlington VA"
      },
      {
        "street" : "WISCONSIN AVENUE & WOODMONT AVE",
        "style" : "paperbox",
        "city" : "BETHESDA",
        "name" : "WISCONSIN AVE & WOODMONT AVE",
        "lat": 38.9951477,
        "lng": -77.0965116,
        "state" : "MD",
        "directions_address" : "Wisconsin Avenue & Woodmont Avenue, Bethesda, MD 20814, USA",
        "details" : "Wisconsin Ave. & Woodmont Ave., Bethesda MD"
      },
      {
        "street" : "7450 WISCONSIN AVE",
        "style" : "paperbox",
        "city" : "BETHESDA",
        "name" : "7450 WISCONSIN AVE",
        "lat": 38.984367,
        "lng": -77.09512099999999,
        "state" : "MD",
        "directions_address" : "7450 Wisconsin Avenue, Bethesda, MD 20814, USA",
        "details" : "7450 Wisconsin Ave., Bethesda MD"
      },
      {
        "street" : "700 N. WEST STREET",
        "style" : "paperbox",
        "city" : "ALEXANDRIA",
        "name" : "700 N WEST ST",
        "lat": 38.8140654,
        "lng": -77.0533797,
        "state" : "VA",
        "directions_address" : "700 North West Street, Alexandria, VA 22314, USA",
        "details" : "700 N. West St., Alexandria VA"
      },
      {
        "street" : "355 1ST STREET SE",
        "style" : "paperbox",
        "city" : "WASHINGTON",
        "name" : "355 1ST ST SE",
        "lat": 38.885621,
        "lng": -77.00607099999999,
        "state" : "DC",
        "directions_address" : "355 1st Street Southeast, Washington, DC 20003, USA",
        "details" : "355 1st St. SE, Washington DC"
      },
      {
        "street" : "1200 G STREET NW",
        "style" : "paperbox",
        "city" : "WASHINGTON",
        "name" : "1200 G ST NW",
        "lat": 38.898012,
        "lng": -77.028519,
        "state" : "DC",
        "directions_address" : "1200 G Street Northwest, Washington, DC 20005, USA",
        "details" : "1200 G St. NW, Washington DC"
      },
      {
        "street" : "1100 G STREET NW",
        "style" : "paperbox",
        "city" : "WASHINGTON",
        "name" : "1100 G ST NW",
        "lat": 38.8983003,
        "lng": -77.027045,
        "state" : "DC",
        "directions_address" : "1100 G Street Northwest, Washington, DC 20005, USA",
        "details" : "1100 G St. NW, Washington DC"
      },
      {
        "street" : "3100 WILSON BLVD",
        "style" : "paperbox",
        "city" : "ARLINGTON",
        "name" : "3100 WILSON BLVD",
        "lat": 38.8871613,
        "lng": -77.0951413,
        "state" : "VA",
        "directions_address" : "3100 Wilson Boulevard, Arlington, VA 22201, USA",
        "details" : "3100 Wilson Blvd., Arlington VA"
      },
      {
        "street" : "3511 CONNECTICUT AVENUE NW",
        "style" : "paperbox",
        "city" : "WASHINGTON",
        "name" : "3511 CONNECTICUT AVE NW",
        "lat": 38.9357979,
        "lng": -77.05862069999999,
        "state" : "DC",
        "directions_address" : "3511 Connecticut Avenue Northwest, Washington, DC 20008, USA",
        "details" : "3511 Connecticut Ave. NW, Washington DC"
      },
      {
        "street" : "2100 WILSON BLVD",
        "style" : "paperbox",
        "city" : "ARLINGTON",
        "name" : "2100 WILSON BLVD",
        "lat": 38.8915399,
        "lng": -77.0848728,
        "state" : "VA",
        "directions_address" : "2100 Wilson Boulevard, Arlington, VA 22201, USA",
        "details" : "2100 Wilson Blvd., Arlington VA"
      },
      {
        "street" : "1750 S. CLARK STREET",
        "style" : "paperbox",
        "city" : "ARLINGTON",
        "name" : "1750 S CLARK ST",
        "lat": 38.8576578,
        "lng": -77.0501507,
        "state" : "VA",
        "directions_address" : "1750 South Clark Street, Crystal City Shops, Arlington, VA 22202, USA",
        "details" : "1750 S. Clark St., Crystal City Shops, Arlington VA"
      },
      {
        "street" : "2700 GALLOWS ROAD",
        "style" : "paperbox",
        "city" : "VIENNA",
        "name" : "2700 GALLOWS RD",
        "lat": 38.8823592,
        "lng": -77.2298516,
        "state" : "VA",
        "directions_address" : "2700 Gallows Road, Vienna, VA 22180, USA",
        "details" : "2700 Gallows Rd., Vienna VA"
      },
      {
        "street" : "2001 N. SYCAMORE STREET",
        "style" : "paperbox",
        "city" : "FALLS CHURCH",
        "name" : "2001 N SYCAMORE ST",
        "lat": 38.8859058,
        "lng": -77.1565198,
        "state" : "VA",
        "directions_address" : "2001 North Sycamore Street, Arlington, VA 22205, USA",
        "details" : "2001 N. Sycamore St., Arlington VA"
      },
      {
        "street" : "701 PENNSYLVANIA AVENUE SE",
        "style" : "paperbox",
        "city" : "WASHINGTON",
        "name" : "701 PENNSYLVANIA AVE SE",
        "lat": 38.884243,
        "lng": -76.995835,
        "state" : "DC",
        "directions_address" : "701 Pennsylvania Avenue Southeast, Washington, DC 20003, USA",
        "details" : "701 Pennsylvania Ave. SE, Washington DC"
      },
      {
        "street" : "2400 EISENHOWER AVE",
        "style" : "paperbox",
        "city" : "ALEXANDRIA",
        "name" : "2400 EISENHOWER AVE",
        "lat": 38.8010984,
        "lng": -77.0708318,
        "state" : "VA",
        "directions_address" : "2400 Eisenhower Avenue, Hoffman Town Center, Alexandria, VA 22314, USA",
        "details" : "2400 Eisenhower Ave., Hoffman Town Center, Alexandria VA"
      },
      {
        "street" : "401 3RD STREET SW",
        "style" : "paperbox",
        "city" : "WASHINGTON",
        "name" : "401 3RD ST SW",
        "lat": 38.8848839,
        "lng": -77.0151328,
        "state" : "DC",
        "directions_address" : "401 3rd Street Southwest, Washington, DC 20515, USA",
        "details" : "401 3rd St. SW, Washington DC"
      },
      {
        "street" : "302 12TH STREET NW",
        "style" : "paperbox",
        "city" : "WASHINGTON",
        "name" : "302 12TH ST NW",
        "lat": 38.8936604,
        "lng": -77.0279673,
        "state" : "DC",
        "directions_address" : "302 12th Street Northwest, Washington, DC 20224, USA",
        "details" : "302 12th St. NW, Washington DC"
      },
      {
        "street" : "2301 I STREET NW",
        "style" : "paperbox",
        "city" : "WASHINGTON",
        "name" : "2301 I ST NW",
        "lat": 38.90057729999999,
        "lng": -77.0496793,
        "state" : "DC",
        "directions_address" : "2301 I Street Northwest, The George Washington University, Washington, DC 20037, USA",
        "details" : "2301 I St. NW, The George Washington University, Washington DC"
      },
      {
        "street" : "9730 GEORGIA AVENUE",
        "style" : "paperbox",
        "city" : "SILVER SPRING",
        "name" : "9730 GEORGIA AVE",
        "lat": 39.0134182,
        "lng": -77.0420237,
        "state" : "MD",
        "directions_address" : "9730 Georgia Avenue, Silver Spring, MD 20910, USA",
        "details" : "9730 Georgia Ave., Silver Spring MD"
      },
      {
        "street" : "12501 GEORGIA AVE",
        "style" : "paperbox",
        "city" : "SILVER SPRING",
        "name" : "12501 GEORGIA AVE; RT SIDE",
        "lat": 38.99066570000001,
        "lng": -77.026088,
        "state" : "MD",
        "directions_address" : "12501 Georgia Avenue, Silver Spring, MD, USA",
        "details" : "12501 Georgia Ave., Silver Spring MD"
      },
      {
        "street" : "10300 ROCKVILLE PIKE",
        "style" : "paperbox",
        "city" : "ROCKVILLE",
        "name" : "10300 ROCKVILLE PIKE",
        "lat": 39.0287665,
        "lng": -77.10389599999999,
        "state" : "MD",
        "directions_address" : "10300 Rockville Pike, Rockville, MD 20852, USA",
        "details" : "10300 Rockville Pike, Rockville MD"
      },
      {
        "street" : "2701 HUNTINGTON AVE",
        "style" : "paperbox",
        "city" : "ALEXANDRIA",
        "name" : "2701 HUNTINGTON AVE",
        "lat": 38.7946065,
        "lng": -77.07440849999999,
        "state" : "VA",
        "directions_address" : "2701 Huntington Avenue, Alexandria, VA 22303, USA",
        "details" : "2701 Huntington Ave., Alexandria VA"
      },
      {
        "street" : "1900 KING STREET",
        "style" : "paperbox",
        "city" : "ALEXANDRIA",
        "name" : "1900 KING ST",
        "lat": 38.8059368,
        "lng": -77.06163339999999,
        "state" : "VA",
        "directions_address" : "1900 King Street, Alexandria, VA 22301, USA",
        "details" : "1900 King St., Alexandria VA"
      },
      {
        "street" : "600 MARYLAND AVENUE SW",
        "style" : "paperbox",
        "city" : "WASHINGTON",
        "name" : "600 MARYLAND AVE SW",
        "lat": 38.8862562,
        "lng": -77.0214644,
        "state" : "DC",
        "directions_address" : "600 Maryland Avenue Southwest, Washington, DC 20024, USA",
        "details" : "600 Maryland Ave. SW, Washington DC"
      },
      {
        "street" : "1500 I STREET NW",
        "style" : "paperbox",
        "city" : "WASHINGTON",
        "name" : "1500 I ST NW",
        "lat": 38.9013258,
        "lng": -77.0336274,
        "state" : "DC",
        "directions_address" : "1500 I Street Northwest, Washington, DC 20533, USA",
        "details" : "1500 I St. NW, Washington DC"
      },
      {
        "street" : "8810 ROCKVILLE PIKE",
        "style" : "paperbox",
        "city" : "BETHESDA",
        "name" : "8810 ROCKVILLE PIKE",
        "lat": 38.9996586,
        "lng": -77.0970019,
        "state" : "MD",
        "directions_address" : "8810 Rockville Pike, Bethesda, MD 20892, USA",
        "details" : "8810 Rockville Pike, Bethesda MD"
      },
      {
        "street" : "12505 S. HAYES STREET",
        "style" : "paperbox",
        "city" : "ARLINGTON",
        "name" : "12505 S HAYES ST",
        "lat": 38.8563434,
        "lng": -77.0595295,
        "state" : "VA",
        "directions_address" : "12505 South Hayes Street, Arlington, VA, USA",
        "details" : "12505 S. Hayes St., Arlington VA"
      },
      {
        "street" : "12515 S. HAYES STREET",
        "style" : "paperbox",
        "city" : "ARLINGTON",
        "name" : "12515 S HAYES ST",
        "lat": 38.8563434,
        "lng": -77.0595295,
        "state" : "VA",
        "directions_address" : "12515 South Hayes Street, Arlington, VA, USA",
        "details" : "12515 S. Hayes St., Arlington VA"
      },
      {
        "street" : "1851 N. MOORE STREET",
        "style" : "paperbox",
        "city" : "ARLINGTON",
        "name" : "1851 N. MOORE ST",
        "lat": 38.8966143,
        "lng": -77.07147619999999,
        "state" : "VA",
        "directions_address" : "1851 North Moore Street, Arlington, VA, USA",
        "details" : "1851 N. Moore St., Arlington VA"
      },
      {
        "street" : "1850 N. MOORE STREET",
        "style" : "paperbox",
        "city" : "ARLINGTON",
        "name" : "1850 N. MOORE ST",
        "lat": 38.8959335,
        "lng": -77.07151259999999,
        "state" : "VA",
        "directions_address" : "1850 North Moore Street, Arlington, VA 22209, USA",
        "details" : "1850 N. Moore St., Arlington VA"
      },
      {
        "street" : "15950 REDLAND BLVD",
        "style" : "paperbox",
        "city" : "ROCKVILLE",
        "name" : "15950 REDLAND BLVD",
        "lat": 39.1101747,
        "lng": -77.1759952,
        "state" : "MD",
        "directions_address" : "15950 Redland Boulevard, Rockville, MD 20850, USA",
        "details" : "15950 Redland Blvd., Rockville MD"
      },
      {
        "street" : "8400 COLESVILLE ROAD",
        "style" : "paperbox",
        "city" : "SILVER SPRING",
        "name" : "8400 COLESVILLE RD",
        "lat": 38.9936282,
        "lng": -77.0322949,
        "state" : "MD",
        "directions_address" : "8400 Colesville Road, Silver Spring, MD 20910, USA",
        "details" : "8400 Colesville Rd., Silver Spring MD"
      },
      {
        "street" : "300 CEDAR STREET NW",
        "style" : "paperbox",
        "city" : "WASHINGTON",
        "name" : "300 CEDAR ST NW",
        "lat": 38.9752973,
        "lng": -77.0163755,
        "state" : "DC",
        "directions_address" : "300 Cedar Street Northwest, Washington, DC 20012, USA",
        "details" : "300 Cedar St. NW, Washington DC"
      },
      {
        "street" : "4500 WISCONSIN AVENUE NW",
        "style" : "paperbox",
        "city" : "WASHINGTON",
        "name" : "4500 WISCONSIN AVE NW",
        "lat": 38.9484624,
        "lng": -77.0805395,
        "state" : "DC",
        "directions_address" : "4500 Wisconsin Avenue Northwest, Washington, DC 20016, USA",
        "details" : "4500 Wisconsin Ave. NW, Washington DC"
      },
      {
        "street" : "1600 CHAPMAN AVE",
        "style" : "paperbox",
        "city" : "ROCKVILLE",
        "name" : "1600 CHAPMAN AVE",
        "lat": 39.06269440000001,
        "lng": -77.1223349,
        "state" : "MD",
        "directions_address" : "1600 Chapman Avenue, Rockville, MD 20852, USA",
        "details" : "1600 Chapman Ave., Rockville MD"
      },
      {
        "street" : "5450 EISENHOWER AVE",
        "style" : "paperbox",
        "city" : "ALEXANDRIA",
        "name" : "5450 EISENHOWER AVE",
        "lat": 38.8007491,
        "lng": -77.12823829999999,
        "state" : "VA",
        "directions_address" : "5450 Eisenhower Avenue, Alexandria, VA 22304, USA",
        "details" : "5450 Eisenhower Ave., Alexandria VA"
      },
      {
        "street" : "4200 CONNECTICUT AVENUE NW",
        "style" : "paperbox",
        "city" : "WASHINGTON",
        "name" : "4200 CONNECTICUT AVE NW",
        "lat": 38.943723,
        "lng": -77.06394200000001,
        "state" : "DC",
        "directions_address" : "4200 Connecticut Avenue Northwest, University of the District of Columbia, Washington, DC 20008, USA",
        "details" : "4200 Connecticut Ave. NW, University of the District of Columbia, Washington DC"
      },
      {
        "street" : "2900 NUTLEY STREET",
        "style" : "paperbox",
        "city" : "VIENNA",
        "name" : "2900 NUTLEY ST",
        "lat": 38.874981,
        "lng": -77.264893,
        "state" : "VA",
        "directions_address" : "2900 Nutley Street, Fairfax, VA 22031, USA",
        "details" : "2900 Nutley St., Fairfax VA"
      },
      {
        "street" : "3600 FAIRFAX DRIVE",
        "style" : "paperbox",
        "city" : "ARLINGTON",
        "name" : "3600 FAIRFAX DR",
        "lat": 38.882807,
        "lng": -77.103523,
        "state" : "VA",
        "directions_address" : "3600 Fairfax Drive, Arlington, VA 22201, USA",
        "details" : "3600 Fairfax Dr., Arlington VA"
      },
      {
        "street" : "7040 HAYCOCK ROAD",
        "style" : "paperbox",
        "city" : "FALLS CHURCH",
        "name" : "7040 HAYCOCK RD",
        "lat": 38.89964,
        "lng": -77.187454,
        "state" : "VA",
        "directions_address" : "7040 Haycock Road, Falls Church, VA 22043, USA",
        "details" : "7040 Haycock Rd., Falls Church VA"
      },
      {
        "street" : "11000 VEIRS MILL ROAD",
        "style" : "paperbox",
        "city" : "SILVER SPRING",
        "name" : "11000 VEIRS MILL RD",
        "lat": 39.0362964,
        "lng": -77.05044099999999,
        "state" : "MD",
        "directions_address" : "11000 Veirs Mill Road, Silver Spring, MD 20902, USA",
        "details" : "11000 Veirs Mill Rd., Silver Spring MD"
      },
      {
        "street" : "2700 CONNECTICUT AVENUE NW",
        "style" : "paperbox",
        "city" : "WASHINGTON",
        "name" : "2700 CONNECTICUT AVE NW",
        "lat": 38.9259382,
        "lng": -77.0533408,
        "state" : "DC",
        "directions_address" : "2700 Connecticut Avenue Northwest, Washington, DC 20008, USA",
        "details" : "2700 Connecticut Ave. NW, Washington DC"
      },
      {
        "street" : "2175 K STREET NW",
        "style" : "paperbox",
        "city" : "WASHINGTON",
        "name" : "2175 K ST NW",
        "lat": 38.90287000000001,
        "lng": -77.04842599999999,
        "state" : "DC",
        "directions_address" : "2175 K Street Northwest, Washington, DC 20037, USA",
        "details" : "2175 K St. NW, Washington DC"
      },
      {
        "street" : "1100 WILSON BLVD",
        "style" : "paperbox",
        "city" : "ARLINGTON",
        "name" : "1100 WILSON BLVD",
        "lat": 38.894533,
        "lng": -77.070297,
        "state" : "VA",
        "directions_address" : "1100 Wilson Boulevard, Arlington, VA 22209, USA",
        "details" : "1100 Wilson Blvd., Arlington VA"
      },
      {
        "street" : "1201 19TH STREET NW",
        "style" : "paperbox",
        "city" : "WASHINGTON",
        "name" : "1201 19TH ST NW",
        "lat": 38.9056135,
        "lng": -77.04344999999999,
        "state" : "DC",
        "directions_address" : "1201 19th Street Northwest, Washington, DC 20036, USA",
        "details" : "1201 19th St. NW, Washington DC"
      },
      {
        "street" : "800 17TH STREET NW",
        "style" : "paperbox",
        "city" : "WASHINGTON",
        "name" : "800 17TH ST NW",
        "lat": 38.900459,
        "lng": -77.03981399999999,
        "state" : "DC",
        "directions_address" : "800 17th Street Northwest, Washington, DC 20006, USA",
        "details" : "800 17th St. NW, Washington DC"
      },
      {
        "street" : "2550 M STREET NW",
        "style" : "paperbox",
        "city" : "WASHINGTON",
        "name" : "2550 M ST NW",
        "lat": 38.904997,
        "lng": -77.05421299999999,
        "state" : "DC",
        "directions_address" : "2550 M Street Northwest, Washington, DC 20037, USA",
        "details" : "2550 M St. NW, Washington DC"
      },
      {
        "street" : "700 N. CAPITOL STREET NW",
        "style" : "paperbox",
        "city" : "WASHINGTON",
        "name" : "700 N CAPITOL ST NW",
        "lat": 38.899552,
        "lng": -77.01029299999999,
        "state" : "DC",
        "directions_address" : "700 North Capitol Street Northwest, Washington, DC 20001, USA",
        "details" : "700 N. Capitol St. NW, Washington DC"
      },
      {
        "street" : "1220 L STREET NW",
        "style" : "paperbox",
        "city" : "WASHINGTON",
        "name" : "1220 L ST NW",
        "lat": 38.903383,
        "lng": -77.02914,
        "state" : "DC",
        "directions_address" : "1220 L Street Northwest, Washington, DC 20005, USA",
        "details" : "1220 L St. NW, Washington DC"
      },
      {
        "street" : "9TH STREET NW & NEW YORK AVENUE NW",
        "style" : "paperbox",
        "city" : "WASHINGTON",
        "name" : "9TH ST NW & NEW YORK AVE NW",
        "lat": 38.9021603,
        "lng": -77.0239868,
        "state" : "DC",
        "directions_address" : "New York Avenue Northwest & 9th Street Northwest, Washington, DC 20001, USA",
        "details" : "New York Ave. NW & 9th St. NW, Washington DC"
      },
      {
        "street" : "1776 I STREET NW",
        "style" : "paperbox",
        "city" : "WASHINGTON",
        "name" : "1776 I ST NW",
        "lat": 38.900936,
        "lng": -77.041229,
        "state" : "DC",
        "directions_address" : "1776 I Street Northwest, Washington, DC 20006, USA",
        "details" : "1776 I St. NW, Washington DC"
      },
      {
        "street" : "510 S. ROYAL STREET",
        "style" : "paperbox",
        "city" : "ALEXANDRIA",
        "name" : "510 S ROYAL ST",
        "lat": 38.7994572,
        "lng": -77.0447138,
        "state" : "VA",
        "directions_address" : "510 South Royal Street, Alexandria, VA 22314, USA",
        "details" : "510 S. Royal St., Alexandria VA"
      },
      {
        "street" : "1515 WILSON BLVD",
        "style" : "paperbox",
        "city" : "ARLINGTON",
        "name" : "1515 WILSON BLVD",
        "lat": 38.895142,
        "lng": -77.0746489,
        "state" : "VA",
        "directions_address" : "1515 Wilson Boulevard, Arlington, VA 22209, USA",
        "details" : "1515 Wilson Blvd., Arlington VA"
      },
      {
        "street" : "1150 21ST STREET NW",
        "style" : "paperbox",
        "city" : "WASHINGTON",
        "name" : "1150 21ST ST NW",
        "lat": 38.9047089,
        "lng": -77.0466701,
        "state" : "DC",
        "directions_address" : "1150 21st Street Northwest, Washington, DC 20037, USA",
        "details" : "1150 21st St. NW, Washington DC"
      },
      {
        "street" : "1201 K STREET NW",
        "style" : "paperbox",
        "city" : "WASHINGTON",
        "name" : "1201 K ST NW",
        "lat": 38.9025821,
        "lng": -77.0284015,
        "state" : "DC",
        "directions_address" : "1201 K Street Northwest, Washington, DC 20005, USA",
        "details" : "1201 K St. NW, Washington DC"
      },
      {
        "street" : "1333 NEW HAMPSHIRE AVENUE NW",
        "style" : "paperbox",
        "city" : "WASHINGTON",
        "name" : "1333 NEW HAMPSHIRE AVE NW",
        "lat": 38.9083232,
        "lng": -77.0437049,
        "state" : "DC",
        "directions_address" : "1333 New Hampshire Avenue Northwest, Washington, DC 20036, USA",
        "details" : "1333 New Hampshire Ave. NW, Washington DC"
      },
      {
        "street" : "2001 K STREET NW",
        "style" : "paperbox",
        "city" : "WASHINGTON",
        "name" : "2001 K ST NW",
        "lat": 38.9031332,
        "lng": -77.0454173,
        "state" : "DC",
        "directions_address" : "2001 K Street Northwest, The George Washington University, Washington, DC 20554, USA",
        "details" : "2001 K St. NW, The George Washington University, Washington DC"
      },
      {
        "street" : "400 1ST STREET SE",
        "style" : "paperbox",
        "city" : "WASHINGTON",
        "name" : "400 1ST ST SE",
        "lat": 38.8850182,
        "lng": -77.0056488,
        "state" : "DC",
        "directions_address" : "400 1st Street Southeast, Washington, DC 20003, USA",
        "details" : "400 1st St. SE, Washington DC"
      },
      {
        "street" : "231 2ND STREET NW",
        "style" : "paperbox",
        "city" : "WASHINGTON",
        "name" : "231 2ND ST NW",
        "lat": 38.893187,
        "lng": -77.013408,
        "state" : "DC",
        "directions_address" : "231 2nd Street Northwest, Washington, DC 20001, USA",
        "details" : "231 2nd St. NW, Washington DC"
      },
      {
        "street" : "701 L STREET NW",
        "style" : "paperbox",
        "city" : "WASHINGTON",
        "name" : "701 L ST NW",
        "lat": 38.9041823,
        "lng": -77.0219347,
        "state" : "DC",
        "directions_address" : "701 L Street Northwest, Washington, DC 20001, USA",
        "details" : "701 L St. NW, Washington DC"
      },
      {
        "street" : "1667 K STREET NW",
        "style" : "paperbox",
        "city" : "WASHINGTON",
        "name" : "1667 K ST NW",
        "lat": 38.903001,
        "lng": -77.03813,
        "state" : "DC",
        "directions_address" : "1667 K Street Northwest, Washington, DC 20006, USA",
        "details" : "1667 K St. NW, Washington DC"
      },
      {
        "street" : "1230 23RD STREET NW",
        "style" : "paperbox",
        "city" : "WASHINGTON",
        "name" : "1230 23RD ST NW",
        "lat": 38.9062486,
        "lng": -77.050265,
        "state" : "DC",
        "directions_address" : "1230 23rd Street Northwest, Washington, DC 20037, USA",
        "details" : "1230 23rd St. NW, Washington DC"
      },
      {
        "street" : "1776 K STREET NW",
        "style" : "paperbox",
        "city" : "WASHINGTON",
        "name" : "1776 K ST NW",
        "lat": 38.902225,
        "lng": -77.0412479,
        "state" : "DC",
        "directions_address" : "1776 K Street Northwest, Washington, DC 20006, USA",
        "details" : "1776 K St. NW, Washington DC"
      },
      {
        "street" : "600 F STREET NW",
        "style" : "paperbox",
        "city" : "WASHINGTON",
        "name" : "600 F ST NW",
        "lat": 38.897068,
        "lng": -77.0201249,
        "state" : "DC",
        "directions_address" : "600 F Street Northwest, Washington, DC 20004, USA",
        "details" : "600 F St. NW, Washington DC"
      },
      {
        "street" : "1890 M STREET NW",
        "style" : "paperbox",
        "city" : "WASHINGTON",
        "name" : "1890 M ST NW",
        "lat": 38.9056416,
        "lng": -77.0433443,
        "state" : "DC",
        "directions_address" : "1890 M Street Northwest, Washington, DC 20036, USA",
        "details" : "1890 M St. NW, Washington DC"
      },
      {
        "street" : "3030 K STREET NW",
        "style" : "paperbox",
        "city" : "WASHINGTON",
        "name" : "3030 K ST NW",
        "lat": 38.9021312,
        "lng": -77.0595673,
        "state" : "DC",
        "directions_address" : "3030 K Street Northwest, Washington, DC 20007, USA",
        "details" : "3030 K St. NW, Washington DC"
      },
      {
        "street" : "1500 L STREET NW",
        "style" : "paperbox",
        "city" : "WASHINGTON",
        "name" : "1500 L ST NW",
        "lat": 38.9037294,
        "lng": -77.0358038,
        "state" : "DC",
        "directions_address" : "1500 L Street Northwest, Washington, DC 20005, USA",
        "details" : "1500 L St. NW, Washington DC"
      },
      {
        "street" : "600 NEW HAMPSHIRE AVENUE NW",
        "style" : "paperbox",
        "city" : "WASHINGTON",
        "name" : "600 NEW HAMPSHIRE AVE NW",
        "lat": 38.897758,
        "lng": -77.055286,
        "state" : "DC",
        "directions_address" : "600 New Hampshire Avenue Northwest, Washington, DC 20011, USA",
        "details" : "600 New Hampshire Ave. NW, Washington DC"
      },
      {
        "street" : "443-C 7TH STREET NW",
        "city" : "WASHINGTON",
        "style" : "starbucks",
        "name" : "443-C 7TH ST NW",
        "lat": 38.8959913,
        "lng": -77.0218411,
        "state" : "DC",
        "directions_address" : "443 7th Street Northwest, Washington, DC 20004, USA",
        "details" : "443 7th St. NW, Washington DC"
      },
      {
        "street" : "800 SEVENTH STREET NW",
        "city" : "WASHINGTON",
        "style" : "starbucks",
        "name" : "800 SEVENTH ST NW",
        "lat": 38.8998719,
        "lng": -77.0219895,
        "state" : "DC",
        "directions_address" : "800 7th Street Northwest, Washington, DC 20001, USA",
        "details" : "800 7th St. NW, Washington DC"
      },
      {
        "street" : "701 9TH STREET NW",
        "city" : "WASHINGTON",
        "style" : "starbucks",
        "name" : "701 9TH ST NW",
        "lat": 38.89901500000001,
        "lng": -77.023468,
        "state" : "DC",
        "directions_address" : "701 9th Street Northwest, Washington, DC 20001, USA",
        "details" : "701 9th St. NW, Washington DC"
      },
      {
        "street" : "500 NEW JERSEY AVENUE NW",
        "city" : "WASHINGTON",
        "style" : "starbucks",
        "name" : "500 NEW JERSEY AVE NW",
        "lat": 38.89664,
        "lng": -77.011904,
        "state" : "DC",
        "directions_address" : "500 New Jersey Avenue Northwest, Washington, DC 20001, USA",
        "details" : "500 New Jersey Ave. NW, Washington DC"
      },
      {
        "street" : "901 NEW YORK AVENUE NW",
        "city" : "WASHINGTON",
        "style" : "starbucks",
        "name" : "901 NEW YORK AVE NW",
        "lat": 38.9020106,
        "lng": -77.0251566,
        "state" : "DC",
        "directions_address" : "901 New York Avenue Northwest, Washington, DC 20001, USA",
        "details" : "901 New York Ave. NW, Washington DC"
      },
      {
        "street" : "40 MASSACHUSETTS AVENUE NE",
        "city" : "WASHINGTON",
        "style" : "starbucks",
        "name" : "40 MASSACHUSETTS AVE NE",
        "lat": 38.8975799,
        "lng": -77.0084943,
        "state" : "DC",
        "directions_address" : "40 Massachusetts Avenue Northeast, Washington, DC 20002, USA",
        "details" : "40 Massachusetts Ave. NE, Washington DC"
      },
      {
        "street" : "237 Pennsylvania AVENUE SE",
        "city" : "WASHINGTON",
        "style" : "starbucks",
        "name" : "237 Pennsylvania Ave SE",
        "lat": 38.8869695,
        "lng": -77.0023757,
        "state" : "DC",
        "directions_address" : "237 Pennsylvania Avenue Southeast, Washington, DC 20003, USA",
        "details" : "237 Pennsylvania Ave. SE, Washington DC"
      },
      {
        "street" : "401 8TH STREET SE",
        "city" : "WASHINGTON",
        "style" : "starbucks",
        "name" : "401 8TH ST SE",
        "lat": 38.8836202,
        "lng": -76.99515,
        "state" : "DC",
        "directions_address" : "401 8th Street Southeast, Washington, DC 20003, USA",
        "details" : "401 8th St. SE, Washington DC"
      },
      {
        "street" : "325 SEVENTH STREET NW #100",
        "city" : "WASHINGTON",
        "style" : "starbucks",
        "name" : "325 SEVENTH ST NW #100",
        "lat": 38.894562,
        "lng": -77.0215039,
        "state" : "DC",
        "directions_address" : "325 7th Street Northwest, Washington, DC 20004, USA",
        "details" : "325 7th St. NW, Washington DC"
      },
      {
        "street" : "1301 PENNSYLVANIA AVENUE NW",
        "city" : "WASHINGTON",
        "style" : "starbucks",
        "name" : "1301 PENNSYLVANIA AVE NW",
        "lat": 38.8966779,
        "lng": -77.0298414,
        "state" : "DC",
        "directions_address" : "1301 Pennsylvania Avenue Northwest, Washington, DC 20004, USA",
        "details" : "1301 Pennsylvania Ave. NW, Washington DC"
      },
      {
        "street" : "700 14TH STREET NW",
        "city" : "WASHINGTON",
        "style" : "starbucks",
        "name" : "700 14TH ST NW",
        "lat": 38.8983253,
        "lng": -77.0319485,
        "state" : "DC",
        "directions_address" : "700 14th Street Northwest, Washington, DC 20004, USA",
        "details" : "700 14th St. NW, Washington DC"
      },
      {
        "street" : "1401 NEW YORK AVENUE NW",
        "city" : "WASHINGTON",
        "style" : "starbucks",
        "name" : "1401 NEW YORK AVE NW",
        "lat": 38.899781,
        "lng": -77.03231199999999,
        "state" : "DC",
        "directions_address" : "1401 New York Avenue Northwest, Washington, DC 20005, USA",
        "details" : "1401 New York Ave. NW, Washington DC"
      },
      {
        "street" : "901 15TH STREET NW",
        "city" : "WASHINGTON",
        "style" : "starbucks",
        "name" : "901 15TH ST NW",
        "lat": 38.9015879,
        "lng": -77.0334046,
        "state" : "DC",
        "directions_address" : "901 15th Street Northwest, Washington, DC 20005, USA",
        "details" : "901 15th St. NW, Washington DC"
      },
      {
        "street" : "1429 P STREET NW",
        "city" : "WASHINGTON",
        "style" : "starbucks",
        "name" : "1429 P ST NW",
        "lat": 38.9097888,
        "lng": -77.0331215,
        "state" : "DC",
        "directions_address" : "1429 P Street Northwest, Washington, DC 20005, USA",
        "details" : "1429 P St. NW, Washington DC"
      },
      {
        "street" : "3122 M STREET NW",
        "city" : "WASHINGTON",
        "style" : "starbucks",
        "name" : "3122 M ST NW",
        "lat": 38.9049128,
        "lng": -77.0618946,
        "state" : "DC",
        "directions_address" : "3122 M Street Northwest, Washington, DC 20007, USA",
        "details" : "3122 M St. NW, Washington DC"
      },
      {
        "street" : "1730 PENNSYLVANIA AVENUE NW",
        "city" : "WASHINGTON",
        "style" : "starbucks",
        "name" : "1730 PENNSYLVANIA AVE NW",
        "lat": 38.8987,
        "lng": -77.04043899999999,
        "state" : "DC",
        "directions_address" : "1730 Pennsylvania Avenue Northwest, Washington, DC 20006, USA",
        "details" : "1730 Pennsylvania Ave. NW, Washington DC"
      },
      {
        "street" : "1825 I STREET NW",
        "city" : "WASHINGTON",
        "style" : "starbucks",
        "name" : "1825 I ST NW; METRO LVL",
        "lat": 38.8951118,
        "lng": -77.0363658,
        "state" : "DC",
        "directions_address" : "1825 I Street Northwest, Washington, DC 20006, USA",
        "details" : "1825 I St. NW, Washington DC"
      },
      {
        "street" : "1900 K STREET NW STE 105",
        "city" : "WASHINGTON",
        "style" : "starbucks",
        "name" : "1900 K ST NW #105",
        "lat": 38.902073,
        "lng": -77.043919,
        "state" : "DC",
        "directions_address" : "1900 K Street Northwest #105, Washington, DC 20006, USA",
        "details" : "1900 K St. NW #105, Washington DC"
      },
      {
        "street" : "1919 PENNSYLVANIA AVENUE NW",
        "city" : "WASHINGTON",
        "style" : "starbucks",
        "name" : "1919 PENNSYLVANIA AVE NW",
        "lat": 38.90081010000001,
        "lng": -77.0447222,
        "state" : "DC",
        "directions_address" : "1919 Pennsylvania Avenue Northwest, The George Washington University, Washington, DC 20006, USA",
        "details" : "1919 Pennsylvania Ave. NW, The George Washington University, Washington DC"
      },
      {
        "street" : "1110 VERMONT AVENUE NW",
        "city" : "WASHINGTON",
        "style" : "starbucks",
        "name" : "1110 VERMONT AVE NW",
        "lat": 38.9043009,
        "lng": -77.0329819,
        "state" : "DC",
        "directions_address" : "1110 Vermont Avenue Northwest, Washington, DC 20005, USA",
        "details" : "1110 Vermont Ave. NW, Washington DC"
      },
      {
        "street" : "1810 WISCONSIN AVENUE NW",
        "city" : "WASHINGTON",
        "style" : "starbucks",
        "name" : "1810 WISCONSIN AVE NW",
        "lat": 38.9149995,
        "lng": -77.0674918,
        "state" : "DC",
        "directions_address" : "1810 Wisconsin Avenue Northwest, Washington, DC 20007, USA",
        "details" : "1810 Wisconsin Ave. NW, Washington DC"
      },
      {
        "street" : "3122 M STREET NW",
        "city" : "WASHINGTON",
        "style" : "starbucks",
        "name" : "3122 M ST NW",
        "lat": 38.9049128,
        "lng": -77.0618946,
        "state" : "DC",
        "directions_address" : "3122 M Street Northwest, Washington, DC 20007, USA",
        "details" : "3122 M St. NW, Washington DC"
      },
      {
        "street" : "2302 WISCONSIN AVENUE NW",
        "city" : "WASHINGTON",
        "style" : "starbucks",
        "name" : "2302 WISCONSIN AVE NW",
        "lat": 38.920167,
        "lng": -77.0717248,
        "state" : "DC",
        "directions_address" : "2302 Wisconsin Avenue Northwest, Washington, DC 20007, USA",
        "details" : "2302 Wisconsin Ave. NW, Washington DC"
      },
      {
        "street" : "3050 K STREET NW",
        "city" : "WASHINGTON",
        "style" : "starbucks",
        "name" : "3050 K ST NW",
        "lat": 38.902219,
        "lng": -77.06056199999999,
        "state" : "DC",
        "directions_address" : "3050 K Street Northwest, Washington, DC 20007, USA",
        "details" : "3050 K St. NW, Washington DC"
      },
      {
        "street" : "3301 M STREET NW",
        "city" : "WASHINGTON",
        "style" : "starbucks",
        "name" : "3301 M ST NW",
        "lat": 38.90538,
        "lng": -77.066227,
        "state" : "DC",
        "directions_address" : "3301 M Street Northwest, Washington, DC 20007, USA",
        "details" : "3301 M St. NW, Washington DC"
      },
      {
        "street" : "3420 CONNECTICUT AVENUE NW",
        "city" : "WASHINGTON",
        "style" : "starbucks",
        "name" : "3420 CONNECTICUT AVE NW",
        "lat": 38.9349977,
        "lng": -77.057908,
        "state" : "DC",
        "directions_address" : "3420 Connecticut Avenue Northwest, Washington, DC 20008, USA",
        "details" : "3420 Connecticut Ave. NW, Washington DC"
      },
      {
        "street" : "3000 CONNECTICUT AVENUE NW",
        "city" : "WASHINGTON",
        "style" : "starbucks",
        "name" : "3000 CONNECTICUT AVE NW",
        "lat": 38.92987,
        "lng": -77.0555995,
        "state" : "DC",
        "directions_address" : "3000 Connecticut Avenue Northwest, Washington, DC 20008, USA",
        "details" : "3000 Connecticut Ave. NW, Washington DC"
      },
      {
        "street" : "4250 CONNECTICUT AVENUE NW",
        "city" : "WASHINGTON",
        "style" : "starbucks",
        "name" : "4250 CONNECTICUT AVE NW",
        "lat": 38.94485299999999,
        "lng": -77.064453,
        "state" : "DC",
        "directions_address" : "4250 Connecticut Avenue Northwest, Washington, DC 20008, USA",
        "details" : "4250 Connecticut Ave. NW, Washington DC"
      },
      {
        "street" : "1700 CONNECTICUT AVENUE NW",
        "city" : "WASHINGTON",
        "style" : "starbucks",
        "name" : "1700 CONNECTICUT AVE NW",
        "lat": 38.91274840000001,
        "lng": -77.0457402,
        "state" : "DC",
        "directions_address" : "1700 Connecticut Avenue Northwest, Washington, DC 20009, USA",
        "details" : "1700 Connecticut Ave. NW, Washington DC"
      },
      {
        "street" : "1600 U STREET NW",
        "city" : "WASHINGTON",
        "style" : "starbucks",
        "name" : "1600 U ST NW",
        "lat": 38.9169444,
        "lng": -77.03693969999999,
        "state" : "DC",
        "directions_address" : "1600 U Street Northwest, Washington, DC 20009, USA",
        "details" : "1600 U St. NW, Washington DC"
      },
      {
        "street" : "1250 U STREET NW",
        "city" : "WASHINGTON",
        "style" : "starbucks",
        "name" : "1250 U ST NW",
        "lat": 38.9169524,
        "lng": -77.0288549,
        "state" : "DC",
        "directions_address" : "1250 U Street Northwest, Washington, DC 20001, USA",
        "details" : "1250 U St. NW, Washington DC"
      },
      {
        "street" : "1801 COLUMBIA ROAD NW",
        "city" : "WASHINGTON",
        "style" : "starbucks",
        "name" : "1801 COLUMBIA RD NW",
        "lat": 38.92272,
        "lng": -77.04304599999999,
        "state" : "DC",
        "directions_address" : "1801 Columbia Road Northwest, Washington, DC 20009, USA",
        "details" : "1801 Columbia Rd. NW, Washington DC"
      },
      {
        "street" : "3107 14TH STREET NW",
        "city" : "WASHINGTON",
        "style" : "starbucks",
        "name" : "3107 14TH ST NW",
        "lat": 38.9294332,
        "lng": -77.03253389999999,
        "state" : "DC",
        "directions_address" : "3107 14th Street Northwest, Washington, DC 20010, USA",
        "details" : "3107 14th St. NW, Washington DC"
      },
      {
        "street" : "5500 CONNECTICUT AVENUE NW",
        "city" : "WASHINGTON",
        "style" : "starbucks",
        "name" : "5500 CONNECTICUT AVE NW",
        "lat": 38.9631145,
        "lng": -77.0745542,
        "state" : "DC",
        "directions_address" : "5500 Connecticut Avenue Northwest, Washington, DC 20015, USA",
        "details" : "5500 Connecticut Ave. NW, Washington DC"
      },
      {
        "street" : "5335 WISCONSIN AVENUE NW",
        "city" : "WASHINGTON",
        "style" : "starbucks",
        "name" : "5335 WISCONSIN AVE NW",
        "lat": 38.960454,
        "lng": -77.084679,
        "state" : "DC",
        "directions_address" : "5335 Wisconsin Avenue Northwest, Chevy Chase Pavilion, Washington, DC 20015, USA",
        "details" : "5335 Wisconsin Ave. NW, Chevy Chase Pavilion, Washington DC"
      },
      {
        "street" : "3430 WISCONSIN AVENUE NW",
        "city" : "WASHINGTON",
        "style" : "starbucks",
        "name" : "3430 WISCONSIN AVE NW",
        "lat": 38.935304,
        "lng": -77.0730022,
        "state" : "DC",
        "directions_address" : "3430 Wisconsin Avenue Northwest, Washington, DC 20016, USA",
        "details" : "3430 Wisconsin Ave. NW, Washington DC"
      },
      {
        "street" : "4820 MASSACHUSETTS AVENUE NW",
        "city" : "WASHINGTON",
        "style" : "starbucks",
        "name" : "4820 MASSACHUSETTS AVE NW",
        "lat": 38.9447668,
        "lng": -77.0954878,
        "state" : "DC",
        "directions_address" : "4820 Massachusetts Avenue Northwest, Washington, DC 20016, USA",
        "details" : "4820 Massachusetts Ave. NW, Washington DC"
      },
      {
        "street" : "5185 MACARTHUR BLVD",
        "city" : "WASHINGTON",
        "style" : "starbucks",
        "name" : "5185 MACARTHUR BLVD",
        "lat": 38.92646070000001,
        "lng": -77.1028912,
        "state" : "DC",
        "directions_address" : "5185 MacArthur Boulevard, Washington, DC 20016, USA",
        "details" : "5185 MacArthur Blvd., Washington DC"
      },
      {
        "street" : "4513 WISCONSIN AVENUE NW",
        "city" : "WASHINGTON",
        "style" : "starbucks",
        "name" : "4513 WISCONSIN AVE NW",
        "lat": 38.9482781,
        "lng": -77.0796608,
        "state" : "DC",
        "directions_address" : "4513 Wisconsin Avenue Northwest, Washington, DC 20016, USA",
        "details" : "4513 Wisconsin Ave. NW, Washington DC"
      },
      {
        "street" : "3301 NEW MEXICO AVENUE NW",
        "city" : "WASHINGTON",
        "style" : "starbucks",
        "name" : "3301 NEW MEXICO AVE NW",
        "lat": 38.93354,
        "lng": -77.0848225,
        "state" : "DC",
        "directions_address" : "3301 New Mexico Avenue Northwest, Washington, DC 20016, USA",
        "details" : "3301 New Mexico Ave. NW, Washington DC"
      },
      {
        "street" : "550 C STREET SW #100",
        "city" : "WASHINGTON",
        "style" : "starbucks",
        "name" : "550 C ST SW #100",
        "lat": 38.885557,
        "lng": -77.019317,
        "state" : "DC",
        "directions_address" : "550 C Street Southwest #100, Washington, DC 20024, USA",
        "details" : "550 C St. SW #100, Washington DC"
      },
      {
        "street" : "409 3RD STREET SW #105",
        "city" : "WASHINGTON",
        "style" : "starbucks",
        "name" : "409 3RD ST SW #105",
        "lat": 38.88478130000001,
        "lng": -77.0160205,
        "state" : "DC",
        "directions_address" : "409 3rd Street Southwest #105, Washington, DC 20024, USA",
        "details" : "409 3rd St. SW #105, Washington DC"
      },
      {
        "street" : "600 MARYLAND AVENUE SW",
        "city" : "WASHINGTON",
        "style" : "starbucks",
        "name" : "600 MARYLAND AVE SW",
        "lat": 38.8862562,
        "lng": -77.0214644,
        "state" : "DC",
        "directions_address" : "600 Maryland Avenue Southwest, Washington, DC 20024, USA",
        "details" : "600 Maryland Ave. SW, Washington DC"
      },
      {
        "street" : "1201 MARYLAND AVENUE SW",
        "city" : "WASHINGTON",
        "style" : "starbucks",
        "name" : "1201 MARYLAND AVE SW",
        "lat": 38.8844533,
        "lng": -77.0294728,
        "state" : "DC",
        "directions_address" : "1201 Maryland Avenue Southwest, Washington, DC 20024, USA",
        "details" : "1201 Maryland Ave. SW, Washington DC"
      },
      {
        "street" : "1501 CONNECTICUT AVENUE NW",
        "city" : "WASHINGTON",
        "style" : "starbucks",
        "name" : "1501 CONNECTICUT AVE NW",
        "lat": 38.9105436,
        "lng": -77.0437176,
        "state" : "DC",
        "directions_address" : "1501 Connecticut Avenue Northwest, Washington, DC 20036, USA",
        "details" : "1501 Connecticut Ave. NW, Washington DC"
      },
      {
        "street" : "1301 CONNECTICUT AVENUE NW",
        "city" : "WASHINGTON",
        "style" : "starbucks",
        "name" : "1301 CONNECTICUT AVE NW",
        "lat": 38.907654,
        "lng": -77.04197099999999,
        "state" : "DC",
        "directions_address" : "1301 Connecticut Avenue Northwest, Washington, DC 20036, USA",
        "details" : "1301 Connecticut Ave. NW, Washington DC"
      },
      {
        "street" : "1600 K STREET NW",
        "city" : "WASHINGTON",
        "style" : "starbucks",
        "name" : "1600 K ST NW",
        "lat": 38.902202,
        "lng": -77.036867,
        "state" : "DC",
        "directions_address" : "1600 K Street Northwest, Washington, DC 20006, USA",
        "details" : "1600 K St. NW, Washington DC"
      },
      {
        "street" : "1734 L STREET NW",
        "city" : "WASHINGTON",
        "style" : "starbucks",
        "name" : "1734 L ST NW",
        "lat": 38.9034155,
        "lng": -77.04098069999999,
        "state" : "DC",
        "directions_address" : "1734 L Street Northwest, Washington, DC 20036, USA",
        "details" : "1734 L St. NW, Washington DC"
      },
      {
        "street" : "1205 19th STREET NW",
        "city" : "WASHINGTON",
        "style" : "starbucks",
        "name" : "1205 19th ST NW",
        "lat": 38.905914,
        "lng": -77.04343130000001,
        "state" : "DC",
        "directions_address" : "1205 19th Street Northwest, Washington, DC 20036, USA",
        "details" : "1205 19th St. NW, Washington DC"
      },
      {
        "street" : "2121 P STREET NW",
        "city" : "WASHINGTON",
        "style" : "starbucks",
        "name" : "2121 P ST NW",
        "lat": 38.9098016,
        "lng": -77.0474696,
        "state" : "DC",
        "directions_address" : "2121 P Street Northwest, Washington, DC 20008, USA",
        "details" : "2121 P St. NW, Washington DC"
      },
      {
        "street" : "1001 CONNECTICUT AVENUE NW",
        "city" : "WASHINGTON",
        "style" : "starbucks",
        "name" : "1001 CONNECTICUT AVE NW",
        "lat": 38.9026932,
        "lng": -77.0394383,
        "state" : "DC",
        "directions_address" : "1001 Connecticut Avenue Northwest, Washington, DC 20036, USA",
        "details" : "1001 Connecticut Ave. NW, Washington DC"
      },
      {
        "street" : "2175 K STREET NW",
        "city" : "WASHINGTON",
        "style" : "starbucks",
        "name" : "2175 K ST NW",
        "lat": 38.9029058,
        "lng": -77.0486621,
        "state" : "DC",
        "directions_address" : "2175 K Street Northwest, Washington, DC 20037, USA",
        "details" : "2175 K St. NW, Washington DC"
      },
      {
        "street" : "2400 M STREET NW",
        "city" : "WASHINGTON",
        "style" : "starbucks",
        "name" : "2400 M ST NW",
        "lat": 38.9051316,
        "lng": -77.0515171,
        "state" : "DC",
        "directions_address" : "2400 M Street Northwest, Washington, DC 20037, USA",
        "details" : "2400 M St. NW, Washington DC"
      },
      {
        "street" : "2109 M STREET NW",
        "city" : "WASHINGTON",
        "style" : "starbucks",
        "name" : "2109 M ST NW",
        "lat": 38.905394,
        "lng": -77.0483416,
        "state" : "DC",
        "directions_address" : "2109 M Street Northwest, Washington, DC 20037, USA",
        "details" : "2109 M St. NW, Washington DC"
      },
      {
        "street" : "2101 L STREET NW",
        "city" : "WASHINGTON",
        "style" : "starbucks",
        "name" : "2101 L ST NW",
        "lat": 38.904159,
        "lng": -77.04724499999999,
        "state" : "DC",
        "directions_address" : "2101 L Street Northwest, Washington, DC 20037, USA",
        "details" : "2101 L St. NW, Washington DC"
      },
      {
        "street" : "1957 E STREET NW",
        "city" : "WASHINGTON",
        "style" : "starbucks",
        "name" : "1957 E ST NW",
        "lat": 38.8962277,
        "lng": -77.0439573,
        "state" : "DC",
        "directions_address" : "1957 E Street Northwest, The George Washington University, Washington, DC 20052, USA",
        "details" : "1957 E St. NW, The George Washington University, Washington DC"
      },
      {
        "street" : "2130 H STREET NW",
        "city" : "WASHINGTON",
        "style" : "starbucks",
        "name" : "2130 H ST NW",
        "lat": 38.8992933,
        "lng": -77.04843,
        "state" : "DC",
        "directions_address" : "2130 H Street Northwest, The George Washington University, Washington, DC 20052, USA",
        "details" : "2130 H St. NW, The George Washington University, Washington DC"
      },
      {
        "street" : "1200 NEW JERSEY AVENUE SE",
        "city" : "WASHINGTON",
        "style" : "starbucks",
        "name" : "1200 NEW JERSEY AVE SE",
        "lat": 38.87626780000001,
        "lng": -77.00355789999999,
        "state" : "DC",
        "directions_address" : "1200 New Jersey Avenue Southeast, Washington, DC 20003, USA",
        "details" : "1200 New Jersey Ave. SE, Washington DC"
      },
      {
        "street" : "7140 WISCONSIN AVENUE",
        "city" : "BETHESDA",
        "style" : "starbucks",
        "name" : "7140 WISCONSIN AVE",
        "lat": 38.9809366,
        "lng": -77.09277759999999,
        "state" : "MD",
        "directions_address" : "7140 Wisconsin Avenue, Bethesda, MD 20814, USA",
        "details" : "7140 Wisconsin Ave., Bethesda MD"
      },
      {
        "street" : "10251 OLD GEORGETOWN ROAD",
        "city" : "BETHESDA",
        "style" : "starbucks",
        "name" : "10251 OLD GEORGETOWN RD",
        "lat": 39.0230893,
        "lng": -77.12388109999999,
        "state" : "MD",
        "directions_address" : "10251 Old Georgetown Road, Bethesda, MD 20814, USA",
        "details" : "10251 Old Georgetown Rd., Bethesda MD"
      },
      {
        "street" : "7700 NORFOLK AVENUE",
        "city" : "BETHESDA",
        "style" : "starbucks",
        "name" : "7700 NORFOLK AVE",
        "lat": 38.9881357,
        "lng": -77.0961964,
        "state" : "MD",
        "directions_address" : "7700 Norfolk Avenue, Bethesda, MD 20814, USA",
        "details" : "7700 Norfolk Ave., Bethesda MD"
      },
      {
        "street" : "4520 EAST-WEST HWY",
        "city" : "BETHESDA",
        "style" : "starbucks",
        "name" : "4520 EAST-WEST HWY",
        "lat": 38.984649,
        "lng": -77.09218,
        "state" : "MD",
        "directions_address" : "4520 East-West Highway, Bethesda, MD 20814, USA",
        "details" : "4520 East-West Highway, Bethesda MD"
      },
      {
        "street" : "8542 CONNECTICUT AVENUE",
        "city" : "CHEVY CHASE",
        "style" : "starbucks",
        "name" : "8542 CONNECTICUT AVE",
        "lat": 38.99586430000001,
        "lng": -77.0772934,
        "state" : "MD",
        "directions_address" : "8542 Connecticut Avenue, Chevy Chase, MD 20815, USA",
        "details" : "8542 Connecticut Ave., Chevy Chase MD"
      },
      {
        "street" : "5454 WISCONSIN AVENUE",
        "city" : "CHEVY CHASE",
        "style" : "starbucks",
        "name" : "5454 WISCONSIN AVE",
        "lat": 38.9627562,
        "lng": -77.08684269999999,
        "state" : "MD",
        "directions_address" : "5454 Wisconsin Avenue, Chevy Chase, MD 20815, USA",
        "details" : "5454 Wisconsin Ave., Chevy Chase MD"
      },
      {
        "street" : "5438 WESTBARD AVENUE",
        "city" : "BETHESDA",
        "style" : "starbucks",
        "name" : "5438 WESTBARD AVE",
        "lat": 38.9647096,
        "lng": -77.1070769,
        "state" : "MD",
        "directions_address" : "5438 Westbard Avenue, Bethesda, MD 20816, USA",
        "details" : "5438 Westbard Ave., Bethesda MD"
      },
      {
        "street" : "4611 SANGAMORE ROAD STE E",
        "city" : "BETHESDA",
        "style" : "starbucks",
        "name" : "4611 SANGAMORE RD STE E",
        "lat": 38.9500481,
        "lng": -77.1193794,
        "state" : "MD",
        "directions_address" : "4611 Sangamore Road Suite E, The Shops at Sumner Place, Bethesda, MD 20816, USA",
        "details" : "4611 Sangamore Rd. Suite E, The Shops at Sumner Place, Bethesda MD"
      },
      {
        "street" : "10116-A RIVER ROAD",
        "city" : "POTOMAC",
        "style" : "starbucks",
        "name" : "10116-A RIVER RD",
        "lat": 39.0175989,
        "lng": -77.2083729,
        "state" : "MD",
        "directions_address" : "10116-A River Road, Potomac, MD 20854, USA",
        "details" : "10116-A River Rd., Potomac MD"
      },
      {
        "street" : "7911 TUCKERMAN LANE",
        "city" : "POTOMAC",
        "style" : "starbucks",
        "name" : "7911 TUCKERMAN LN",
        "lat": 39.0397731,
        "lng": -77.1569372,
        "state" : "MD",
        "directions_address" : "7911 Tuckerman Lane, Potomac, MD 20854, USA",
        "details" : "7911 Tuckerman Ln., Potomac MD"
      },
      {
        "street" : "1087 SEVEN LOCKS ROAD",
        "city" : "POTOMAC",
        "style" : "starbucks",
        "name" : "1087 SEVEN LOCKS RD",
        "lat": 39.06173709999999,
        "lng": -77.1599591,
        "state" : "MD",
        "directions_address" : "1087 7 Locks Road, Fortune Terrace Shopping Center, Potomac, MD 20854, USA",
        "details" : "1087 7 Locks Rd., Fortune Terrace Shopping Center, Potomac MD"
      },
      {
        "street" : "10103 COLESVILLE ROAD",
        "city" : "SILVER SPRING",
        "style" : "starbucks",
        "name" : "10103 COLESVILLE RD",
        "lat": 39.0207842,
        "lng": -77.01221679999999,
        "state" : "MD",
        "directions_address" : "10103 Colesville Road, Silver Spring, MD 20901, USA",
        "details" : "10103 Colesville Rd., Silver Spring MD"
      },
      {
        "street" : "10731 COLESVILLE ROAD",
        "city" : "SILVER SPRING",
        "style" : "starbucks",
        "name" : "10731 COLESVILLE RD",
        "lat": 39.0300002,
        "lng": -77.0059007,
        "state" : "MD",
        "directions_address" : "10731 Colesville Road, Silver Spring, MD 20901, USA",
        "details" : "10731 Colesville Rd., Silver Spring MD"
      },
      {
        "street" : "7501 H LEESBURG PIKE",
        "city" : "FALLS CHURCH",
        "style" : "starbucks",
        "name" : "7501 H LEESBURG PIKE",
        "lat": 38.902817,
        "lng": -77.204549,
        "state" : "VA",
        "directions_address" : "7501 Leesburg Pike, Idylwood Plaza, Falls Church, VA 22043, USA",
        "details" : "7501 Leesburg Pike, Idylwood Plaza, Falls Church VA"
      },
      {
        "street" : "1218 WEST BROAD STREET",
        "city" : "FALLS CHURCH",
        "style" : "starbucks",
        "name" : "1218 W BROAD ST",
        "lat": 38.8939101,
        "lng": -77.1891035,
        "state" : "VA",
        "directions_address" : "1218 West Broad Street, Falls Church, VA 22046, USA",
        "details" : "1218 West Broad St., Falls Church VA"
      },
      {
        "street" : "344 WEST BROAD STREET",
        "city" : "FALLS CHURCH",
        "style" : "starbucks",
        "name" : "344 W BROAD ST",
        "lat": 38.8844901,
        "lng": -77.1744816,
        "state" : "VA",
        "directions_address" : "344 West Broad Street, Falls Church, VA 22046, USA",
        "details" : "344 West Broad St., Falls Church VA"
      },
      {
        "street" : "1438 CHAIN BRIDGE ROAD",
        "city" : "MCLEAN",
        "style" : "starbucks",
        "name" : "1438 CHAIN BRIDGE RD",
        "lat": 38.9334574,
        "lng": -77.1781766,
        "state" : "VA",
        "directions_address" : "1438 Chain Bridge Road, McLean, VA 22101, USA",
        "details" : "1438 Chain Bridge Rd., McLean VA"
      },
      {
        "street" : "6214 OLD DOMINION DRIVE",
        "city" : "MCLEAN",
        "style" : "starbucks",
        "name" : "6214 OLD DOMINION DR",
        "lat": 38.919778,
        "lng": -77.150395,
        "state" : "VA",
        "directions_address" : "6214 Old Dominion Drive, McLean, VA 22101, USA",
        "details" : "6214 Old Dominion Dr., McLean VA"
      },
      {
        "street" : "3125 LEE HIGHWAY",
        "city" : "ARLINGTON",
        "style" : "starbucks",
        "name" : "3125 LEE HWY",
        "lat": 38.8960429,
        "lng": -77.0965176,
        "state" : "VA",
        "directions_address" : "3125 Lee Highway, Arlington, VA 22201, USA",
        "details" : "3125 Lee Highway, Arlington VA"
      },
      {
        "street" : "2231 CRYSTAL DRIVE",
        "city" : "ARLINGTON",
        "style" : "starbucks",
        "name" : "2231 CRYSTAL DR",
        "lat": 38.853778,
        "lng": -77.04876399999999,
        "state" : "VA",
        "directions_address" : "2231 Crystal Drive, Crystal City Shops, Arlington, VA 22202, USA",
        "details" : "2231 Crystal Dr., Crystal City Shops, Arlington VA"
      },
      {
        "street" : "2690 CLARENDON BLVD",
        "city" : "ARLINGTON",
        "style" : "starbucks",
        "name" : "2690 CLARENDON BLVD",
        "lat": 38.88846059999999,
        "lng": -77.0908175,
        "state" : "VA",
        "directions_address" : "2690 Clarendon Boulevard, Arlington, VA 22201, USA",
        "details" : "2690 Clarendon Blvd., Arlington VA"
      },
      {
        "street" : "1201-G SOUTH HAYES STREET",
        "city" : "ARLINGTON",
        "style" : "starbucks",
        "name" : "1201-G S HAYES ST",
        "lat": 38.861348,
        "lng": -77.05787,
        "state" : "VA",
        "directions_address" : "1201-G South Hayes Street, Arlington, VA 22202, USA",
        "details" : "1201-G S. Hayes St., Arlington VA"
      },
      {
        "street" : "1649 CRYSTAL SQUARE ARCADE",
        "city" : "ARLINGTON",
        "style" : "starbucks",
        "name" : "1649 CRYSTAL SQUARE ARCADE",
        "lat": 38.8595595,
        "lng": -77.0495131,
        "state" : "VA",
        "directions_address" : "1649 Crystal Square Arcade, Crystal City Shops, Arlington, VA 22202, USA",
        "details" : "1649 Crystal Square Arcade, Crystal City Shops, Arlington VA"
      },
      {
        "street" : "1101 SOUTH JOYCE STREET SUITE B33",
        "city" : "ARLINGTON",
        "style" : "starbucks",
        "name" : "1101 S JOYCE ST STE B33",
        "lat": 38.8641886,
        "lng": -77.0630085,
        "state" : "VA",
        "directions_address" : "1101 South Joyce Street, Arlington, VA 22202, USA",
        "details" : "1101 S. Joyce St., Arlington VA"
      },
      {
        "street" : "1100 S. HAYES STREET #K104",
        "city" : "ARLINGTON",
        "style" : "starbucks",
        "name" : "1100 S HAYES ST #K104",
        "lat": 38.865005,
        "lng": -77.0596504,
        "state" : "VA",
        "directions_address" : "1100 South Hayes Street #k104, Arlington, VA 22202, USA",
        "details" : "1100 S. Hayes St. #k104, Arlington VA"
      },
      {
        "street" : "2600 CRYSTAL DRIVE",
        "city" : "ARLINGTON",
        "style" : "starbucks",
        "name" : "2600 CRYSTAL DR",
        "lat": 38.8495898,
        "lng": -77.0509869,
        "state" : "VA",
        "directions_address" : "2600 Crystal Drive, Arlington, VA 22202, USA",
        "details" : "2600 Crystal Dr., Arlington VA"
      },
      {
        "street" : "901 NORTH STUART STREET",
        "city" : "ARLINGTON",
        "style" : "starbucks",
        "name" : "901 N STUART ST",
        "lat": 38.8820013,
        "lng": -77.1115475,
        "state" : "VA",
        "directions_address" : "901 North Stuart Street, Arlington, VA 22230, USA",
        "details" : "901 N. Stuart St., Arlington VA"
      },
      {
        "street" : "4238 WILSON BLVD #1264",
        "city" : "ARLINGTON",
        "style" : "starbucks",
        "name" : "4238 WILSON BLVD #1264",
        "lat": 38.8796756,
        "lng": -77.1108892,
        "state" : "VA",
        "directions_address" : "4238 Wilson Boulevard #1264, Ballston Common Mall, Arlington, VA 22203, USA",
        "details" : "4238 Wilson Blvd. #1264, Ballston Common Mall, Arlington VA"
      },
      {
        "street" : "901 NORTH NELSON STREET 120",
        "city" : "ARLINGTON",
        "style" : "starbucks",
        "name" : "901 N NELSON ST 120",
        "lat": 38.8826521,
        "lng": -77.10376939999999,
        "state" : "VA",
        "directions_address" : "901 North Nelson Street, Arlington, VA 22203, USA",
        "details" : "901 N. Nelson St., Arlington VA"
      },
      {
        "street" : "2441-2443 N. HARRISON STREET",
        "city" : "ARLINGTON",
        "style" : "starbucks",
        "name" : "2441-2443 N HARRISON ST",
        "lat": 38.8963754,
        "lng": -77.1378046,
        "state" : "VA",
        "directions_address" : "2443 North Harrison Street, Arlington, VA 22207, USA",
        "details" : "2443 N. Harrison St., Arlington VA"
      },
      {
        "street" : "4526 LEE HIGHWAY",
        "city" : "ARLINGTON",
        "style" : "starbucks",
        "name" : "4526 LEE HWY",
        "lat": 38.8984435,
        "lng": -77.1190056,
        "state" : "VA",
        "directions_address" : "4526 Lee Highway, Arlington, VA 22207, USA",
        "details" : "4526 Lee Highway, Arlington VA"
      },
      {
        "street" : "1501 NORTH 17TH STREET",
        "city" : "ROSSLYN",
        "style" : "starbucks",
        "name" : "1501 N 17TH ST",
        "lat": 38.8941144,
        "lng": -77.0739905,
        "state" : "VA",
        "directions_address" : "1501 17th Street North, Arlington, VA 22209, USA",
        "details" : "1501 17th St. N., Arlington VA"
      },
      {
        "street" : "1735 N. LYNN STREET",
        "city" : "ROSSYLN",
        "style" : "starbucks",
        "name" : "1735 N LYNN ST",
        "lat": 38.895727,
        "lng": -77.07048,
        "state" : "VA",
        "directions_address" : "1735 North Lynn Street, Arlington, VA 22209, USA",
        "details" : "1735 N. Lynn St., Arlington VA"
      },
      {
        "street" : "2200 CLARENDON BLVD",
        "city" : "ARLINGTON",
        "style" : "starbucks",
        "name" : "2200 CLARENDON BLVD",
        "lat": 38.8900886,
        "lng": -77.0859493,
        "state" : "VA",
        "directions_address" : "2200 Clarendon Boulevard, Arlington, VA 22201, USA",
        "details" : "2200 Clarendon Blvd., Arlington VA"
      },
      {
        "street" : "532 KING STREET",
        "city" : "ALEXANDRIA",
        "style" : "starbucks",
        "name" : "532 KING ST",
        "lat": 38.8047865,
        "lng": -77.04572519999999,
        "state" : "VA",
        "directions_address" : "532 King Street, Alexandria, VA 22314, USA",
        "details" : "532 King St., Alexandria VA"
      },
      {
        "street" : "683 N. WASHINGTON STREET",
        "city" : "ALEXANDRIA",
        "style" : "starbucks",
        "name" : "683 N WASHINGTON ST",
        "lat": 38.8113917,
        "lng": -77.0454502,
        "state" : "VA",
        "directions_address" : "683 North Washington Street, George Washington Memorial Parkway, Alexandria, VA 22314, USA",
        "details" : "683 N. Washington St., GW Pkwy., Alexandria VA"
      },
      {
        "street" : "100 S. UNION STREET",
        "city" : "ALEXANDRIA",
        "style" : "starbucks",
        "name" : "100 S UNION ST",
        "lat": 38.804105,
        "lng": -77.0402107,
        "state" : "VA",
        "directions_address" : "100 South Union Street, Alexandria, VA 22314, USA",
        "details" : "100 S. Union St., Alexandria VA"
      },
      {
        "street" : "2459 EISENHOWER AVENUE",
        "city" : "ALEXANDRIA",
        "style" : "starbucks",
        "name" : "2459 EISENHOWER AVE",
        "lat": 38.8016022,
        "lng": -77.0719958,
        "state" : "VA",
        "directions_address" : "2459 Eisenhower Avenue, Hoffman Town Center, Alexandria, VA 22331, USA",
        "details" : "2459 Eisenhower Ave., Hoffman Town Center, Alexandria VA"
      },
      {
        "street" : "3113 DUKE STREET",
        "city" : "ALEXANDRIA",
        "style" : "starbucks",
        "name" : "3113 DUKE ST",
        "lat": 38.80771319999999,
        "lng": -77.0834308,
        "state" : "VA",
        "directions_address" : "3113 Duke Street, Alexandria, VA 22314, USA",
        "details" : "3113 Duke St., Alexandria VA"
      },
      {
        "street" : "1901 BALLENGER AVENUE",
        "city" : "ALEXANDRIA",
        "style" : "starbucks",
        "name" : "1901 BALLENGER AVE",
        "lat": 38.802594,
        "lng": -77.06198549999999,
        "state" : "VA",
        "directions_address" : "1901 Ballenger Avenue, Alexandria, VA 22314, USA",
        "details" : "1901 Ballenger Ave., Alexandria VA"
      },
      {
        "street" : "525 NORTH FAYETTE STREET",
        "city" : "ALEXANDRIA",
        "style" : "starbucks",
        "name" : "525 N FAYETTE ST",
        "lat": 38.810816,
        "lng": -77.0508119,
        "state" : "VA",
        "directions_address" : "525 North Fayette Street, Alexandria, VA 22314, USA",
        "details" : "525 N. Fayette St., Alexandria VA"
      }
    ]
  }
}